home_id,title,postcode,price,street,houseNumber,city,quarter,latitude,longitude,livingSpace,numberOfRooms,balcony,garden,monthlyRate,builtInKitchen,home_url
133642566,"Attraktiv! Fantastische 2,5-Zimmer-Wohnung mit Dachterrasse und Einbauküche!",12103,1954.1,In den Alboingärten,1,Berlin,Schöneberg (Schöneberg),52.4604,13.36537,100.83,2.5,true,false,N/A,true,https://www.immobilienscout24.de/expose/133642566
133585995,Hier geht es hoch hinaus 3-Zimmer-Wohnung zur Selbstgestaltung,14055,742.35,Angerburger Allee,53,Berlin,Charlottenburg (Charlottenburg),52.50921,13.22123,83.73,3.0,true,false,N/A,false,https://www.immobilienscout24.de/expose/133585995
133586005,Wohnung zur Selbstgestaltung sucht neuen Mieter,14055,385.68,Angerburger Allee,53,Berlin,Charlottenburg (Charlottenburg),52.50921,13.22123,41.89,1.0,false,false,N/A,false,https://www.immobilienscout24.de/expose/133586005
133586010,Hier geht es hoch hinaus 2-Zimmer-Wohnung zur Selbstgestaltung,14055,744.48,Angerburger Allee,47,Berlin,Charlottenburg (Charlottenburg),52.50921,13.22123,83.97,2.0,true,false,N/A,false,https://www.immobilienscout24.de/expose/133586010
133586016,2-Zimmer-Wohnung zur Selbstgestaltung sucht neue Mieter,14055,744.48,Angerburger Allee,47,Berlin,Charlottenburg (Charlottenburg),52.50921,13.22123,83.97,2.0,true,false,N/A,false,https://www.immobilienscout24.de/expose/133586016
133617149,"WBS mit besonderem Wohnbedarf zwingend! Moderne, helle 3 Zimmerwohnung mit Terrasse zu vermieten",12559,699.0,Salvador-Allende-Str. 76 G,-,Berlin,Köpenick (Köpenick),52.44595,13.59372,74.11,3.0,true,false,N/A,true,https://www.immobilienscout24.de/expose/133617149
133617282,WBS mit besonderem Wohnbedarf zwingend! Moderne Familienwohnung mit Einbauküche nahe der Müggelspree,12559,775.0,Salvador-Allende-Str. 76 T,-,Berlin,Köpenick (Köpenick),52.44595,13.59372,83.61,4.0,true,false,N/A,true,https://www.immobilienscout24.de/expose/133617282
133617347,Rollstuhlgerechte Wohnung mit eigener Terrasse nahe der Müggelspree!,12559,599.0,Salvador-Allende-Str. 76 U,-,Berlin,Köpenick (Köpenick),52.44595,13.59372,63.45,2.5,true,false,N/A,false,https://www.immobilienscout24.de/expose/133617347
133617396,WBS mit besonderem Wohnbedarf zwingend erforderlich! Tolle Familienwohnung sucht neue Mieter!,12559,699.0,Salvador-Allende-Str. 76 U,-,Berlin,Köpenick (Köpenick),52.44595,13.59372,73.55,3.0,true,false,N/A,true,https://www.immobilienscout24.de/expose/133617396
133617462,WBS mit besonderem Wohnbedarf zwingend! Tolle Singlewohnung mit Wintergarten ab sofort zu vermieten!,12559,470.0,Salvador-Allende-Str. 76 Q,-,Berlin,Köpenick (Köpenick),52.44595,13.59372,43.12,1.5,true,false,N/A,false,https://www.immobilienscout24.de/expose/133617462
133618156,Tolle 1-2-Zimmer-Wohnung mit Einbauküche und Terrasse zur gemeinschaftlichen Nutzung!,12685,427.85,Fichtelbergstr.,13,Berlin,Marzahn (Marzahn),52.53435,13.55231,46.03,1.5,true,false,N/A,true,https://www.immobilienscout24.de/expose/133618156
133874856,"Tauschwohnung: 2,5 Zimmer Wohnung am Südstern ",10967,580.0,N/A,N/A,Berlin,Kreuzberg (Kreuzberg),N/A,N/A,68.0,2.5,true,false,N/A,true,https://www.immobilienscout24.de/expose/133874856
131813337,Tauschwohnung: 2 Zi Whg in Künstlerkolonie gegen 4 Zi Whg,14197,450.0,N/A,N/A,Berlin,Wilmersdorf (Wilmersdorf),N/A,N/A,53.0,2.0,true,false,N/A,false,https://www.immobilienscout24.de/expose/131813337
133755052,Tauschwohnung: Ruhige Altbauwohnung im Samariterkiez gegen Potsdam ,10247,828.0,N/A,N/A,Berlin,Friedrichshain (Friedrichshain),N/A,N/A,92.0,3.0,true,true,N/A,false,https://www.immobilienscout24.de/expose/133755052
133546928,"Tauschwohnung: Suchen: 2,5-4 Zimmer / Bieten: 2 Zimmer + 1 Zimmer Wohnung",10315,400.0,N/A,N/A,Berlin,Friedrichsfelde (Lichtenberg),N/A,N/A,50.0,2.0,true,false,N/A,false,https://www.immobilienscout24.de/expose/133546928
133864658,"Tauschwohnung: 3,5 zimmer Altbau gegen  Wohnung im Prenzlberg mit Balkon",10437,1200.0,N/A,N/A,Berlin,Prenzlauer Berg (Prenzlauer Berg),N/A,N/A,126.0,3.5,true,false,N/A,true,https://www.immobilienscout24.de/expose/133864658
133524194,B.PLACE - Stilvolle 2-Zimmer Wohnung im urbanen Zentrum Berlins mit großem Balkon,10117,2100.0,Cora-Berliner-Straße,2-4,Berlin,Mitte (Mitte),52.51441,13.38003,62.0,2.0,true,true,N/A,true,https://www.immobilienscout24.de/expose/133524194
130236268,Perfekt für uns: großzügige 4-Zimmer-Wohnung mit Einbauküche und Balkon,12103,1699.02,In den Alboingärten,17,Berlin,Schöneberg (Schöneberg),52.46068,13.36457,107.2,4.0,true,false,N/A,true,https://www.immobilienscout24.de/expose/130236268
133734832,Nette Nachbarn gesucht: großzügige 4-Zimmer-Wohnung,12439,1358.0,Hasselwerderstraße,29,Berlin,Niederschöneweide (Treptow),52.45678,13.51731,96.74,4.0,true,false,N/A,true,https://www.immobilienscout24.de/expose/133734832
130138043,Traumhafte 2 Zi. DG Wohnung m. 2 Terrassen in Reinickendorf,13409,1409.45,Werftendensteig,3a,Berlin,Reinickendorf (Reinickendorf),52.56572,13.36527,80.54,2.0,true,false,N/A,false,https://www.immobilienscout24.de/expose/130138043
133859198,Magazinstraße 15,10000,400.0,Magazinstraße,15,Berlin,Mitte (Mitte),52.51828,13.4193,100.0,5.0,false,false,N/A,false,https://www.immobilienscout24.de/expose/133859198
133835102,Tauschwohnung: BIETE 5 Zi -- SUCHE 2-3 Zi,14055,1176.0,N/A,N/A,Berlin,Charlottenburg (Charlottenburg),N/A,N/A,118.0,5.0,true,true,N/A,false,https://www.immobilienscout24.de/expose/133835102
125369419,Der Himmel über Berlin: Exklusive Dachterrassenwohnung in Schöneberger Kiezlage ,10827,2899.0,Gustav-Freytag-Straße,8,Berlin,Schöneberg (Schöneberg),52.48046,13.35005,139.0,4.0,false,false,N/A,true,https://www.immobilienscout24.de/expose/125369419
133467078,Luxus-Wohnung in der Villa Grunewaldherz,14195,8000.0,N/A,N/A,Berlin,Schmargendorf (Wilmersdorf),N/A,N/A,188.01,4.0,true,true,N/A,true,https://www.immobilienscout24.de/expose/133467078
133838936,Großzügige Wohnung direkt in der City-West,14199,1565.0,Helene-Jacobs-Straße,8,Berlin,Schmargendorf (Wilmersdorf),52.47947,13.29834,78.57,3.0,true,false,N/A,true,https://www.immobilienscout24.de/expose/133838936
133838900,"Wohnen im BE MAX! Dein modernes, neues Zuhause!",14199,1575.0,Helene-Jacobs-Straße,28,Berlin,Schmargendorf (Wilmersdorf),52.47899,13.29765,77.1,3.0,true,false,N/A,true,https://www.immobilienscout24.de/expose/133838900
131003082,"Luxuriöse und moderne 2- Raum-Wohnung im ""Gästehaus am Schlosspark"" mit großer Terrasse!",13156,2164.1,Tschaikowskistrasse,3,Berlin,Niederschönhausen (Pankow),52.5772,13.40349,151.76,2.0,false,false,N/A,false,https://www.immobilienscout24.de/expose/131003082
133481145,Attraktive Neubauwohnung mit 3 Zimmern und Balkon im Stadtgut Hellersdorf! // BEG 240,12629,818.18,Brigitte-Reimann-Straße,10,Berlin,Hellersdorf (Hellersdorf),52.54366,13.59607,74.38,3.0,true,false,N/A,false,https://www.immobilienscout24.de/expose/133481145
133798304,Penthouse Wohnung in Mitte( LIVING GARDEN)- in traumhafter Wohnlage,10115,4206.0,Chausseestraße,58 E,Berlin,Mitte (Mitte),52.53637,13.37625,179.33,4.0,true,false,N/A,true,https://www.immobilienscout24.de/expose/133798304
118279473,"*Teilmöblierte* 1,5-Zimmer-Wohnung direkt am Maybachufer",12047,1400.0,Maybachufer,42,Berlin,Neukölln (Neukölln),52.49145,13.43403,51.89,1.5,true,false,N/A,true,https://www.immobilienscout24.de/expose/118279473
129156209,Skandinavisch möblierte 2 Zimmer-Wohnung in bester Schöneberger Lage,10781,1790.0,Lindauer Straße,6,Berlin,Schöneberg (Schöneberg),52.49335,13.34897,68.6,2.0,true,true,N/A,false,https://www.immobilienscout24.de/expose/129156209
133553035,WAIDMANNSLUST: Loftartige Maisonettewohnung in exklusiver Ausstattung,13469,1875.0,N/A,N/A,Berlin,Waidmannslust (Reinickendorf),N/A,N/A,122.0,2.0,true,false,N/A,false,https://www.immobilienscout24.de/expose/133553035
133572179, Du suchst eine Hochwertiges DG mit toller Ausstattung? Wir haben Sie,10247,2304.6,Frankfurter Allee,84,Berlin,Friedrichshain (Friedrichshain),52.51404,13.46934,76.82,2.0,false,false,N/A,true,https://www.immobilienscout24.de/expose/133572179
133782176,Schöne Altbauwohnung mit Einbauküche und Terrasse!,13355,2689.0,Lortzingstraße,27,Berlin,Wedding (Wedding),52.54424,13.39796,107.57,3.5,true,false,N/A,true,https://www.immobilienscout24.de/expose/133782176
133741795,++ERSTBEZUG-LIFT-PENTHOUSE-TERRASSE-EINBAUKÜCHE-PARKETT-WANNENBAD-GÄSTEWC-SEHR RUHIGE LAGE++,13507,2024.87,N/A,N/A,Berlin,Tegel (Reinickendorf),N/A,N/A,119.11,5.0,true,false,N/A,true,https://www.immobilienscout24.de/expose/133741795
133494280,Modernisierte 2-Zimmer Wohnung in ruhiger Lage!,13581,1000.0,Johannastr.,52,Berlin,Spandau (Spandau),52.53038,13.17776,67.0,2.0,true,true,N/A,false,https://www.immobilienscout24.de/expose/133494280
133797075,"Tauschwohnung: 2 Zimmer in Charlottenburg gegen 1.5-3 Zimmer in Moabit, ",14057,640.0,N/A,N/A,Berlin,Charlottenburg (Charlottenburg),N/A,N/A,50.0,2.0,true,false,N/A,false,https://www.immobilienscout24.de/expose/133797075
133800623,"Tauschwohnung: 2,5 Zi Schöneberg mit Balkon gg. 3-4 Zi",10827,650.0,N/A,N/A,Berlin,Schöneberg (Schöneberg),N/A,N/A,65.0,2.5,true,false,N/A,true,https://www.immobilienscout24.de/expose/133800623
133905119,Tauschwohnung: Kleine 3-Zimmerwhg. in Mitte gg. größere 3 o. 4-Zimmerwhg.,10179,409.0,N/A,N/A,Berlin,Mitte (Mitte),N/A,N/A,54.0,3.0,false,false,N/A,false,https://www.immobilienscout24.de/expose/133905119
133905123,"Tauschwohnung: Schöne 2 Zimmer nahe Boxi gegen 2-3 Zimmer in KB, FH, NK, PB",10243,594.0,N/A,N/A,Berlin,Friedrichshain (Friedrichshain),N/A,N/A,57.0,2.0,false,false,N/A,true,https://www.immobilienscout24.de/expose/133905123
133378270,Attraktive Maisonette-Wohnung mit privater Garage,10585,2684.0,Zillestr.,50,Berlin,Charlottenburg (Charlottenburg),52.51369,13.30891,134.2,3.0,true,false,N/A,true,https://www.immobilienscout24.de/expose/133378270
132542952,Genießen Sie Berlin von oben! Mit 2 Terrassen!,14199,2026.0,Hohenzollerndamm,57,Berlin,Schmargendorf (Wilmersdorf),52.48648,13.29716,90.06,4.0,true,false,N/A,false,https://www.immobilienscout24.de/expose/132542952
131328794,Traumhafter Altbau im Herzen Charlottenburgs!,10629,3105.72,Wielandstr.,13,Berlin,Charlottenburg (Charlottenburg),52.50378,13.31493,172.54,4.0,false,false,N/A,false,https://www.immobilienscout24.de/expose/131328794
130371094,Schöne 2-Zi.-Wohnung mit großem Balkon und Top Ausstattung,12527,888.17,Gaffelsteig,3,Berlin,Grünau (Köpenick),52.42622,13.57523,64.64,2.0,true,false,N/A,true,https://www.immobilienscout24.de/expose/130371094
133802837,Wohnung im Haus mit Terrasse und Garten,12683,1200.0,N/A,N/A,Berlin,Biesdorf (Marzahn),N/A,N/A,105.0,3.0,true,true,N/A,false,https://www.immobilienscout24.de/expose/133802837
133916061,"Five room, three bath luxury family treehouse on Hausvogteiplatz",10117,4500.0,Jerusalemer Straße,14,Berlin,Mitte (Mitte),52.51244,13.39679,223.0,5.0,true,true,N/A,true,https://www.immobilienscout24.de/expose/133916061
133880179,Home Select S | 30m² 1-Zimmer Wohnung in Berlin,10245,660.0,Bossestraße,7,Berlin,Friedrichshain (Friedrichshain),52.50077,13.46054,30.3,1.0,true,false,N/A,true,https://www.immobilienscout24.de/expose/133880179
133907942,"Wunderschöne helle 3 Zimmer  DG-Wohnung in einem   2 Fam. Haus / separater Eingang, provisionsfrei",12557,1700.0,N/A,N/A,Berlin,Köpenick (Köpenick),N/A,N/A,115.0,3.0,true,true,N/A,true,https://www.immobilienscout24.de/expose/133907942
78958642,2-Zimmerwohnung mit Balkon im Sprengelkiez,13353,804.44,Sprengelstraße,26,Berlin,Wedding (Wedding),52.54095,13.35162,57.46,2.0,true,false,N/A,true,https://www.immobilienscout24.de/expose/78958642
133790575,115 m² - 4.0 Zi. - voll möbliert - In ruhiger und moderner Lage,12489,1800.0,N/A,N/A,Berlin,Adlershof (Treptow),N/A,N/A,115.0,4.0,true,false,N/A,true,https://www.immobilienscout24.de/expose/133790575
131944146,"Else-Lasker-Schüler-Straße 2, 10783 Berlin",10783,4900.0,Else-Lasker-Schüler-Straße,2,Berlin,Schöneberg (Schöneberg),52.50057,13.35731,165.0,3.0,true,false,N/A,true,https://www.immobilienscout24.de/expose/131944146
133901087,Super schöne DG-Neubauwohnung mit 2 Terrassen und Einbauküche *** ERSTBEZUG ***,12435,1900.0,Kiefholzstr.,21-22,Berlin,Treptow (Treptow),52.49046,13.45108,54.39,2.0,true,false,N/A,true,https://www.immobilienscout24.de/expose/133901087
133349734,charmante 2-Zimmer-Dachgeschosswohnung mit *großzügigem Wohnzimmer*,13127,869.0,Hauptstr.,8,Berlin,Französisch Buchholz (Pankow),52.60381,13.43161,81.82,2.0,false,true,N/A,false,https://www.immobilienscout24.de/expose/133349734
133465309,Großzügige 2-Zimmer Wohnung mit Balkon und Aufzug - sofort beziehbar!,13587,445.31,Hakenfelder Str.,9,Berlin,Spandau (Spandau),52.56662,13.19883,70.16,2.0,true,false,N/A,false,https://www.immobilienscout24.de/expose/133465309
133536717,4-Zimmer Maisonettewohnung mitten im Kiez,12045,652.38,Sonnenallee,77,Berlin,Neukölln (Neukölln),52.48376,13.43677,80.69,4.0,false,false,N/A,false,https://www.immobilienscout24.de/expose/133536717
133557947,"Handwerker aufgepasst: 1,5 Zimmer Wohnung mit Balkon in Spandau nahe Spektesee!",13589,316.44,Falkenseer Chaussee,171,Berlin,Spandau (Spandau),52.55288,13.15441,48.43,1.5,true,false,N/A,false,https://www.immobilienscout24.de/expose/133557947
133812710,Luxus. Neubau. Möbliert. Befristet. D,10785,2150.0,Potsdamer Str.,72,Berlin,Tiergarten (Tiergarten),52.50447,13.36647,74.3,3.0,true,false,N/A,true,https://www.immobilienscout24.de/expose/133812710
132923934,! Ein Traum ! Sanierte 2 Zimmer Wohnung in Pankow,13189,1850.0,Hallandstr.,4,Berlin,Pankow (Pankow),52.55699,13.41524,80.0,2.0,false,false,N/A,false,https://www.immobilienscout24.de/expose/132923934
133874849,Tauschwohnung: Biete 1-ZW mit Balkon - Suche 2/3/4-ZW Altbau Balkon/Garten,13409,433.0,N/A,N/A,Berlin,Reinickendorf (Reinickendorf),N/A,N/A,32.0,1.0,true,false,N/A,false,https://www.immobilienscout24.de/expose/133874849
133874851,"Tauschwohnung: günstige 2 Zi Whg PB gg 2,5-3 Zi PB, FH, KB",10437,470.0,N/A,N/A,Berlin,Prenzlauer Berg (Prenzlauer Berg),N/A,N/A,48.0,2.0,false,false,N/A,false,https://www.immobilienscout24.de/expose/133874851
133874858,Tauschwohnung: Sunny 2 rooms apartment in Neükolln - looking for 3 rooms,12059,524.0,N/A,N/A,Berlin,Neukölln (Neukölln),N/A,N/A,60.0,2.0,false,true,N/A,true,https://www.immobilienscout24.de/expose/133874858
133877421,Tauschwohnung: Wunderschöne Altbau Whg/WG Schillerkiez gegen kleinere Whg,12049,604.0,N/A,N/A,Berlin,Neukölln (Neukölln),N/A,N/A,73.0,3.0,true,false,N/A,true,https://www.immobilienscout24.de/expose/133877421
133882435,"Tauschwohnung: biete 1 Zi Altbau NK suche größer NK, XBERG, MITTE",12055,170.0,N/A,N/A,Berlin,Neukölln (Neukölln),N/A,N/A,33.0,1.0,false,false,N/A,true,https://www.immobilienscout24.de/expose/133882435
133887244,Tauschwohnung: SWAP Kreuzberg gegen Moabit/Tiergarten,10999,800.0,N/A,N/A,Berlin,Kreuzberg (Kreuzberg),N/A,N/A,45.0,2.0,false,false,N/A,false,https://www.immobilienscout24.de/expose/133887244
133897737,Tauschwohnung: Tausche 2 Zimmerwohnung in der Görlitzerstraße gegen Größere,10997,780.0,N/A,N/A,Berlin,Kreuzberg (Kreuzberg),N/A,N/A,75.0,2.0,false,true,N/A,false,https://www.immobilienscout24.de/expose/133897737
133898282,Tauschwohnung: 4-Zimmer Wohnung in City West gegen Haus/ Wohnung mit Garten,10787,748.0,N/A,N/A,Berlin,Tiergarten (Tiergarten),N/A,N/A,78.0,4.0,true,true,N/A,true,https://www.immobilienscout24.de/expose/133898282
109639535,Barrierefreie 1-Zimmer-Wohnung mit EBK,14167,519.13,Teltower Damm,199,Berlin,Zehlendorf (Zehlendorf),52.41599,13.26758,38.95,1.0,true,false,N/A,true,https://www.immobilienscout24.de/expose/109639535
133356118,Nachmieter für Sonnige 2 Zimmer Wohnung mit Balkon und Garage im Grunewald,14193,1350.0,Furtwängler Str.,8,Berlin,Grunewald (Wilmersdorf),52.48436,13.27567,64.71,2.0,true,true,N/A,true,https://www.immobilienscout24.de/expose/133356118
133550496,Dachgeschoss • 50m² Wohnküche • Bad & Duschbad • Fußbodenheizung • am Volkspark mit EBK und Balkon,10825,2959.64,Innsbrucker Straße,18,Berlin,Schöneberg (Schöneberg),52.48175,13.34209,128.68,4.0,true,false,N/A,true,https://www.immobilienscout24.de/expose/133550496
133898836,"Stilvolle, sanierte 1,5-Zimmer-Wohnung mit gehobener Innenausstattung in Rosenthal (Pankow), Berlin",13158,483.0,Hauptstraße,2,Berlin,Rosenthal (Pankow),52.5842,13.36543,37.0,1.5,false,true,N/A,false,https://www.immobilienscout24.de/expose/133898836
133786208,"Gesund Wohnen im Norden von Berlin, Holzhaus Erstbezug, mit eigenem Garten",13125,1640.0,Hörstenweg,110,Berlin,Buch (Pankow),52.64804,13.50598,82.0,3.0,true,true,N/A,true,https://www.immobilienscout24.de/expose/133786208
133499419,"Schöne, geräumige vier Zimmer Wohnung in Berlin, Niederschoenhausen (Pankow)",13156,1700.0,Platanenstr.,15A,Berlin,Niederschönhausen (Pankow),52.58521,13.39645,150.0,4.5,true,false,N/A,true,https://www.immobilienscout24.de/expose/133499419
82807751,Traumhafte 6-Zi.-Altbauwohnung mit historischem Stuck in sonniger Grünlage,12163,3075.0,N/A,N/A,Berlin,Steglitz (Steglitz),N/A,N/A,195.0,6.0,true,false,N/A,false,https://www.immobilienscout24.de/expose/82807751
133041173,Familien Traum mit 2 Balkonen!,10115,2196.4,Boyenstraße,31,Berlin,Mitte (Mitte),52.53651,13.37024,115.6,4.0,true,false,N/A,false,https://www.immobilienscout24.de/expose/133041173
133572260, Erstbezug nach Sanierung!Hochwertiges DG mit toller Ausstattung!,10247,2985.55,Frankfurter Allee,84,Berlin,Friedrichshain (Friedrichshain),52.51404,13.46934,102.95,3.0,false,false,N/A,true,https://www.immobilienscout24.de/expose/133572260
133875797,Wunderschöne Erdgeschosswohnung! Erstbezug nach Sanierung!,13351,699.7,Kongostraße,48,Berlin,Wedding (Wedding),52.55251,13.34644,69.9,2.0,true,false,N/A,false,https://www.immobilienscout24.de/expose/133875797
133821311,"Hübsches Penthouse im ""Fleur de Berlin""",13469,1480.0,N/A,N/A,Berlin,Wittenau (Reinickendorf),N/A,N/A,87.05,2.0,true,false,N/A,false,https://www.immobilienscout24.de/expose/133821311
133817661,"Wunderschöne Wohnung im ""Fleur de Berlin""",13469,910.0,N/A,N/A,Berlin,Waidmannslust (Reinickendorf),N/A,N/A,53.43,2.0,true,false,N/A,true,https://www.immobilienscout24.de/expose/133817661
133758005,"großes 1 Zimmer-Komfort-Appartement ( 57,50 m² ) mit Blick auf die Wuhlheide",12459,677.0,An der Wuhlheide,226 b,Berlin,Oberschöneweide (Köpenick),52.45593,13.55146,57.5,1.0,true,false,N/A,true,https://www.immobilienscout24.de/expose/133758005
133818768,Zentral gelegene Single-Wohnung in Spandau,13585,401.36,Kirchhofstraße,2,Berlin,Spandau (Spandau),52.54508,13.20704,46.08,1.0,false,false,N/A,false,https://www.immobilienscout24.de/expose/133818768
133755464,Wohnen am Wasser auf 2 Ebenen und 5 Zimmern,12589,2100.0,N/A,N/A,Berlin,Rahnsdorf (Köpenick),N/A,N/A,202.0,5.0,true,true,N/A,true,https://www.immobilienscout24.de/expose/133755464
133875431,"Hier macht wohnen Spaß: 2,5-Zimmer-Citywohnung",13403,653.44,Kienhorststr.,36,Berlin,Reinickendorf (Reinickendorf),52.57453,13.331,62.53,2.5,true,false,N/A,false,https://www.immobilienscout24.de/expose/133875431
133759492,Traumhafte Altbauwohnung im Herzen von Pankow,13156,2095.0,Dietzgenstraße,43,Berlin,Niederschönhausen (Pankow),52.58426,13.40258,186.22,5.0,true,false,N/A,false,https://www.immobilienscout24.de/expose/133759492
133884862,"Exklusive, geräumige 2 (3) -Zimmer-Wohnung mit Balkon und EBK in Lichtenrade (Tempelhof), Berlin",12309,1480.0,Homburgstr.,38,Berlin,Lichtenrade (Tempelhof),52.39959,13.41705,78.0,2.0,true,true,N/A,true,https://www.immobilienscout24.de/expose/133884862
129126714,Neubau-Erstbezug - Sehr schöne 5-Zimmer-Penthauswohnung in Lichterfelde-West direkt am Teltowkanal,12207,3475.2,Bäkestr.,7,Berlin,Lichterfelde (Steglitz),52.43515,13.3146,173.76,5.0,true,false,N/A,false,https://www.immobilienscout24.de/expose/129126714
130820786,"HELLE UND MODERNE 3-ZIMMER-WOHNUNG (ME030) MIT EINBAUKÜCHE, KAMIN UND BALKON AM BERLINER ZOO",10787,1875.0,Budapester Straße,43,Berlin,Charlottenburg (Charlottenburg),52.50506,13.3399,96.0,3.0,true,false,N/A,true,https://www.immobilienscout24.de/expose/130820786
133406685,"Modernisierte 2- Zimmerwohnung mit Terrasse und Einbauküche, zu vermieten",13591,1019.0,Nennhauser Damm,77,Berlin,Staaken (Spandau),52.52988,13.14055,72.44,2.0,true,false,N/A,true,https://www.immobilienscout24.de/expose/133406685
133758920,Das Bauhaus: Ein Klassiker - wiederbelebt von Sir David Chipperfield,10117,8858.16,Ziegelstraße,17 - WE 01,Berlin,Mitte (Mitte),52.52335,13.39403,328.0,5.0,false,false,N/A,true,https://www.immobilienscout24.de/expose/133758920
132392363,Erstbezug! Wunderschöne 3 Zimmer Wohnung mit Balkon und Terrasse,10245,2704.32,Krachtstraße,8,Berlin,Friedrichshain (Friedrichshain),52.49647,13.46971,150.24,3.0,true,false,N/A,false,https://www.immobilienscout24.de/expose/132392363
133755098,"1-Raumwohnung im ELLA mit Balkon, Küche und Fußbodenheizung im Erstbezug",12687,669.0,Mehrower Allee,20A,Berlin,Marzahn (Marzahn),52.55566,13.55867,39.37,1.0,true,false,N/A,true,https://www.immobilienscout24.de/expose/133755098
133754818,"1-Raumwohnung im ELLA mit Balkon, Küche und Fußbodenheizung im Erstbezug",12687,805.0,Mehrower Allee,20A,Berlin,Marzahn (Marzahn),52.55566,13.55867,47.4,1.0,true,false,N/A,true,https://www.immobilienscout24.de/expose/133754818
133754568,1-Raumwohnung im ELLA mit Küche und Fußbodenheizung im Erstbezug,12687,485.0,Mehrower Allee,20A,Berlin,Marzahn (Marzahn),52.55566,13.55867,28.5,1.0,false,false,N/A,true,https://www.immobilienscout24.de/expose/133754568
132257835,Schicke Dachgeschosswohnung mit 2 Terrassen und EBK! Erstbezug!,14199,1736.5,Hohenzollerndamm,57,Berlin,Schmargendorf (Wilmersdorf),52.48648,13.29716,69.45,3.0,true,false,N/A,false,https://www.immobilienscout24.de/expose/132257835
133864676,Tauschwohnung: Bright 2 Room Apartment in Yorckstrasse,10783,710.0,N/A,N/A,Berlin,Schöneberg (Schöneberg),N/A,N/A,54.0,2.0,true,false,N/A,true,https://www.immobilienscout24.de/expose/133864676
133867608,"Tauschwohnung: Biete: 2,5 Zimmer, Dielen, Balkon in P-berg. Suche ab 3 Zi",13086,620.0,N/A,N/A,Berlin,Weißensee (Weißensee),N/A,N/A,82.0,3.0,true,false,N/A,false,https://www.immobilienscout24.de/expose/133867608
133870839,Tauschwohnung: 1 ZKB (55qm) im Prenzlauer Berg gegen 2 ZKB + Balkon ,10439,500.0,N/A,N/A,Berlin,Prenzlauer Berg (Prenzlauer Berg),N/A,N/A,55.0,1.0,false,false,N/A,false,https://www.immobilienscout24.de/expose/133870839
133869729,Home Select S | 43m² Wohnung mit 1.5 Zimmern in Berlin,10243,1200.0,Mühlenstraße,20,Berlin,Friedrichshain (Friedrichshain),52.50568,13.44091,42.7,1.5,true,false,N/A,true,https://www.immobilienscout24.de/expose/133869729
133468068,Erstbezug Penthouse Wohnung nähe Nollendorfplatz,10785,2300.0,Kurfürstenstr.,43,Berlin,Tiergarten (Tiergarten),52.50086,13.35947,77.7,2.0,true,true,N/A,true,https://www.immobilienscout24.de/expose/133468068
132518613,Gemütliche Dachgeschosswohnung im grünen Lübars nahe Wasser und Naturschutzgebiet,13469,830.0,Am Vierrutenberg,45,Berlin,Lübars (Reinickendorf),52.61659,13.33981,60.0,2.0,false,false,N/A,true,https://www.immobilienscout24.de/expose/132518613
133867237,"helle, ruhig gelegene 2-Zimmer Wohnung mit Kamin in Pankow (Niederschönhausen)",13156,960.0,Waldemarstrasse,14,Berlin,Niederschönhausen (Pankow),52.58647,13.40912,80.6,2.0,false,false,N/A,true,https://www.immobilienscout24.de/expose/133867237
133210120,Ihre Penthouse Wohnung im Norden - ein 1. Eindruck unser Video,13467,3728.0,Wachsmuthstraße,9,Berlin,Hermsdorf (Reinickendorf),52.61646,13.31279,233.0,3.0,true,true,N/A,true,https://www.immobilienscout24.de/expose/133210120
133667780,NUR FÜR STUDENTEN - Vollständig möbliertes Privatzimmer in einer 4-er WG,12459 ,549.0,Ostendstraße,27,Berlin,Oberschöneweide (Köpenick),52.45736,13.53204,13.8,1.0,false,false,N/A,true,https://www.immobilienscout24.de/expose/133667780
133806842,Tauschwohnung: Sehr helle und sonnige Altbauwohnung,10437,640.0,N/A,N/A,Berlin,Prenzlauer Berg (Prenzlauer Berg),N/A,N/A,40.0,2.0,false,false,N/A,true,https://www.immobilienscout24.de/expose/133806842
133812194,Tauschwohnung: Schöne 2-Zi-Whg. in Frhain gegen 2-Zi.. ab 55 m2 mit Balkon,10243,302.0,N/A,N/A,Berlin,Friedrichshain (Friedrichshain),N/A,N/A,42.0,2.0,false,false,N/A,false,https://www.immobilienscout24.de/expose/133812194
133812891,Tauschwohnung: Schöne 3 Zimmerwohnung in Kreuzberg gegen 3-4 Zimmerwohnung ,10999,900.0,N/A,N/A,Berlin,Kreuzberg (Kreuzberg),N/A,N/A,100.0,3.0,true,false,N/A,true,https://www.immobilienscout24.de/expose/133812891
133817501,Tauschwohnung: Moderne Tauschwohnung sucht größere Altbauwohnung,10243,730.0,N/A,N/A,Berlin,Friedrichshain (Friedrichshain),N/A,N/A,61.0,2.0,false,false,N/A,true,https://www.immobilienscout24.de/expose/133817501
133830880,Tauschwohnung: Sanierte Altbauwohnung 2 Zimmer in Charlottenburg,10585,750.0,N/A,N/A,Berlin,Charlottenburg (Charlottenburg),N/A,N/A,67.0,2.0,false,false,N/A,true,https://www.immobilienscout24.de/expose/133830880
133830884,"Tauschwohnung: Tausche 3 Zimmer 74 qm Albau NKSuche 1,5-2 Z. in NK, KB",12049,620.0,N/A,N/A,Berlin,Neukölln (Neukölln),N/A,N/A,74.0,3.0,true,false,N/A,false,https://www.immobilienscout24.de/expose/133830884
133830891,"Tauschwohnung: Schöne 3,5 Zimmer Dachgeschosswg in P-Berg gegen größere Whg",10439,800.0,N/A,N/A,Berlin,Prenzlauer Berg (Prenzlauer Berg),N/A,N/A,105.0,3.5,true,false,N/A,true,https://www.immobilienscout24.de/expose/133830891
133830893,Tauschwohnung: Helle Dachgeschosswohnung mit Balkon im Wedding,13347,621.0,N/A,N/A,Berlin,Wedding (Wedding),N/A,N/A,90.0,2.0,true,false,N/A,false,https://www.immobilienscout24.de/expose/133830893
131028289,Neue 2-Zimmer-Wohnung in Tiergarten!,10785,1279.0,Dennewitzstrasse,36-40,Berlin,Tiergarten (Tiergarten),52.49949,13.3702,58.18,2.0,true,false,N/A,false,https://www.immobilienscout24.de/expose/131028289
122813740,Vollmöblierte 2-Zimmerwohnungen am Gleispark,10785,1695.0,Schöneberger Ufer,5,Berlin,Kreuzberg (Kreuzberg),52.49582,13.36897,49.55,2.0,true,false,N/A,true,https://www.immobilienscout24.de/expose/122813740
133579356,"Stilvolle, modernisierte 2,5-Zimmer-Wohnung mit Balkon",13593,973.0,N/A,N/A,Berlin,Staaken (Spandau),N/A,N/A,76.0,3.0,true,false,N/A,true,https://www.immobilienscout24.de/expose/133579356
132820275,Erstbezug - Wohnung mit Terrasse am Volkspark Friedrichshain!,10245,2300.0,"Landsberger Allee, WE04",20-22,Berlin,Friedrichshain (Friedrichshain),52.52312,13.43637,113.0,1.0,true,false,N/A,true,https://www.immobilienscout24.de/expose/132820275
132065568,Hochwertig möblierte Wohnung im Zentrum Schönebergs,10827,3000.0,Hauptstraße,136,Berlin,Schöneberg (Schöneberg),52.48497,13.35481,103.42,2.0,false,false,N/A,true,https://www.immobilienscout24.de/expose/132065568
133851223,Teilgewerbliche Nutzung erforderlich - Wunderschöne Altbauwohnung in Friedenau!,12159,1930.0,Rheinstr.,63,Berlin,Friedenau (Schöneberg),52.47064,13.33486,120.44,4.0,false,false,N/A,false,https://www.immobilienscout24.de/expose/133851223
126891829,Lichtdurchflutetes Dachgeschoss mit eigener Dachterrasse !,12555,1680.0,Stellingdamm,2,Berlin,Köpenick (Köpenick),52.45923,13.58081,120.0,2.0,true,false,N/A,true,https://www.immobilienscout24.de/expose/126891829
133534924,3-Zimmer- Wohnung mit garantiertem Wohlfühlfaktor!!,13405,1800.0,Rue du Capitaine Jean Maridor,3,Berlin,Reinickendorf (Reinickendorf),52.56746,13.30148,102.38,3.0,true,false,N/A,true,https://www.immobilienscout24.de/expose/133534924
133817978,Möblierte Neubauwohnung am Schlosspark Charlottenburg,14059,1706.4,N/A,N/A,Berlin,Charlottenburg (Charlottenburg),N/A,N/A,71.1,2.0,true,false,N/A,true,https://www.immobilienscout24.de/expose/133817978
75280995,Schöne 2-Raum-Wohnung zu vermieten!,13156,500.0,Uhlandstr.,69,Berlin,Niederschönhausen (Pankow),52.58713,13.40088,56.0,2.0,true,false,N/A,false,https://www.immobilienscout24.de/expose/75280995
133412647,"Traumhafte Wohnung mit Garten in einer Villa ""Am Kirschgarten""",13127,2205.0,N/A,N/A,Berlin,Französisch Buchholz (Pankow),N/A,N/A,105.0,3.0,true,true,N/A,true,https://www.immobilienscout24.de/expose/133412647
133834910,Großzügige 3-Raum-Wohnung mit großem Garten,12203,1440.0,Augustastraße,24a,Berlin,Lichterfelde (Steglitz),52.44118,13.30475,103.0,3.0,true,true,N/A,true,https://www.immobilienscout24.de/expose/133834910
133834922,Moderne und möblierte Wohnung an Ludwigkirchplatz Kiez,10707,2500.0,Pariser Straße,23,Berlin,Wilmersdorf (Wilmersdorf),52.49885,13.31725,106.0,3.0,true,false,N/A,true,https://www.immobilienscout24.de/expose/133834922
109356842,Singlewohnung mit EBK in idyllischer Lage,12527,400.0,Rehfeldtstr.,7,Berlin,Grünau (Köpenick),52.39695,13.63079,40.0,1.0,false,false,N/A,false,https://www.immobilienscout24.de/expose/109356842
133673698,2-Zi-Penthouse-Whg mit großer Terrasse u. bodentiefen Fenstern EBK u. Aufzug,10435,2744.0,N/A,N/A,Berlin,Prenzlauer Berg (Prenzlauer Berg),N/A,N/A,107.68,2.0,true,false,N/A,true,https://www.immobilienscout24.de/expose/133673698
133823625,4 zi-whg mit garten-terrasse EBK aufzug TG concierge gg berliner dom,10178,2426.07,N/A,N/A,Berlin,Mitte (Mitte),N/A,N/A,159.4,3.0,true,true,N/A,true,https://www.immobilienscout24.de/expose/133823625
133690371,2-- Zimmerwohnung mit Balkon unweit Ubhf-Seestraße zu vermieten,13347,900.0,Amsterdamer Str.,4,Berlin,Wedding (Wedding),52.54977,13.35513,66.13,2.0,true,false,N/A,false,https://www.immobilienscout24.de/expose/133690371
133522553,Erstbezug am Plänterwald: hochwertige 4-Zimmer-Wohnung mit Balkon!,12437,2200.0,N/A,N/A,Berlin,Plänterwald (Treptow),N/A,N/A,96.0,4.0,true,true,N/A,false,https://www.immobilienscout24.de/expose/133522553
133694077,Möbliertes Studio Apartment,10713,1250.0,Wilhelmsaue,32,Berlin,Wilmersdorf (Wilmersdorf),52.48546,13.31888,32.0,1.0,true,false,N/A,true,https://www.immobilienscout24.de/expose/133694077
133591584,3 - Zi. Wohnung im historischen Denkmal Villa Ottilie,14050,1669.0,Platanenallee,23b,Berlin,Charlottenburg (Charlottenburg),52.51442,13.26897,120.56,3.0,true,false,N/A,false,https://www.immobilienscout24.de/expose/133591584
105597144,Stilvoll möblierte Wohnung Neubau in Mitte am Spittelmarkt!,10179,1799.0,Neue Grünstraße,39,Berlin,Mitte (Mitte),52.50979,13.40551,91.0,3.0,true,false,N/A,false,https://www.immobilienscout24.de/expose/105597144
129913286,Modernes Town-House direkt am Gleisdreieck Park (befristet),10785,3900.0,N/A,N/A,Berlin,Tiergarten (Tiergarten),N/A,N/A,160.0,5.0,true,true,N/A,true,https://www.immobilienscout24.de/expose/129913286
131850300,Möbliertes Penthouse Loft direkt am Paul-Lincke-Ufer inkl. Concierge &Stellplatz - Erstbezug!,10999,3536.0,Paul-Lincke-Ufer,8,Berlin,Kreuzberg (Kreuzberg),52.49233,13.43438,136.0,3.0,false,false,N/A,true,https://www.immobilienscout24.de/expose/131850300
133660507,✓ Dachgeschoss am Volkspark ✓ 4-Zi.-Terrassenwohnung ✓ ca. 55m² Wohnküche ✓ ca. 40m² Terrasse ✓ EBK,10825,3349.67,Innsbrucker Straße,36,Berlin,Schöneberg (Schöneberg),52.48052,13.34324,146.98,4.0,true,false,N/A,true,https://www.immobilienscout24.de/expose/133660507
133481910,2 Zimmer DG Wohnung im 3. OG sofort zu beziehen,13409,1543.26,Werftendensteig,4a,Berlin,Reinickendorf (Reinickendorf),52.56586,13.36615,90.78,2.0,true,false,N/A,false,https://www.immobilienscout24.de/expose/133481910
133674429,Erstbezug ab 15.06.2022 I Single oder Pärchenwohnung im Neubauensemble 3 Höfe,10785,1133.0,Lützowstraße,107,Berlin,Tiergarten (Tiergarten),52.50148,13.36966,51.5,2.0,false,false,N/A,false,https://www.immobilienscout24.de/expose/133674429
133673823,"Gepflegte 3-Zimmer-Wohnung mit Balkon und Einbauküche in Rudow (Neukölln), Berlin",12357,940.0,N/A,N/A,Berlin,Rudow (Neukölln),N/A,N/A,80.0,3.0,true,false,N/A,true,https://www.immobilienscout24.de/expose/133673823
133673933,"Stilvolles Apartment mit wunderschönem Blick zum Springbrunnen, 3.640 €, 130 m², 4 Zimmer",10179,3640.0,Alte- Jakob- Str.,101,Berlin,Mitte (Mitte),52.50824,13.40472,130.0,4.0,true,false,N/A,true,https://www.immobilienscout24.de/expose/133673933
133762634,Frisch saniertes Apartment mit Aufzug und Balkon!,12627,629.0,Naumburger Ring,2,Berlin,Hellersdorf (Hellersdorf),52.53953,13.61144,54.78,2.0,true,false,N/A,false,https://www.immobilienscout24.de/expose/133762634
133611153,Sanierte Pärchenwohnung - sofort verfügbar!,12629,569.0,Havelländer Ring,42,Berlin,Hellersdorf (Hellersdorf),52.54107,13.59539,47.42,2.0,true,false,N/A,false,https://www.immobilienscout24.de/expose/133611153
133611757,Helles Familienapartment - sofort verfügbar!,12627,689.0,Kastanienallee,117,Berlin,Hellersdorf (Hellersdorf),52.54239,13.59924,68.93,3.0,true,false,N/A,false,https://www.immobilienscout24.de/expose/133611757
133410656,Praktisches Familienapartment mit Balkon und neuem Fußboden!,12627,689.0,Stendaler Straße,89,Berlin,Hellersdorf (Hellersdorf),52.54303,13.60272,68.54,3.0,true,false,N/A,false,https://www.immobilienscout24.de/expose/133410656
132145282,Helles Familienapartment in Hellersdorf,12627,809.0,Zossener Straße,160,Berlin,Hellersdorf (Hellersdorf),52.54352,13.6006,83.23,3.0,true,false,N/A,false,https://www.immobilienscout24.de/expose/132145282
130418776,"Erstbezug: exklusive, geräumige 3,5-Zimmer-Wohnung mit EBK und Balkon am Alexanderplatz",10179,2900.0,Voltairestr.,11,Berlin,Mitte (Mitte),52.51789,13.41698,114.0,3.5,true,false,N/A,true,https://www.immobilienscout24.de/expose/130418776
133817112,"Erstbezug nach Modernisierung, 2- Zimmerwohnung mit Balkon und Einbauküche zu vermieten",12279,999.0,Friedenfelser Str.,15,Berlin,Marienfelde (Tempelhof),52.41363,13.36131,66.66,2.0,true,false,N/A,true,https://www.immobilienscout24.de/expose/133817112
131900163,"2,0-Zimmer-Wohnung in Berlin Baumschulenweg",12437,634.58,Baumschulenstr.,"93 a/b, Au",Berlin,Baumschulenweg (Treptow),52.46633,13.48757,61.67,2.0,true,false,N/A,false,https://www.immobilienscout24.de/expose/131900163
133661303,Möblierte Luxuswohnung  mit 2 Balkonen gegenüber BND,10115,2660.0,Chausseestraße,37,Berlin,Mitte (Mitte),52.53343,13.37989,106.1,4.0,true,false,N/A,false,https://www.immobilienscout24.de/expose/133661303
133922500,Wohnung 3 - Zimmer mit Balkon,12051,896.0,Walterstr.,2,Berlin,Neukölln (Neukölln),52.4678,13.43964,64.0,3.0,true,false,N/A,true,https://www.immobilienscout24.de/expose/133922500
133402103,"Modernes, Möbliertes 2-Zimmer-Appartment in Berlin-Schöneberg",10781,2000.0,Goltzstraße,22,Berlin,Schöneberg (Schöneberg),52.49432,13.35409,51.0,2.0,true,false,N/A,true,https://www.immobilienscout24.de/expose/133402103
132351231,Erstbezug Neubau- Ideal für Zwei!,12687,583.22,Karl-Holtz-Straße,12,Berlin,Marzahn (Marzahn),52.55251,13.56799,58.38,2.0,true,false,N/A,false,https://www.immobilienscout24.de/expose/132351231
132011406,Tauschwohnung: NUR TAUSCH 2 Zimmer Altbau Berlin Wedding gg 1-2 Zimmer,13349,526.0,N/A,N/A,Berlin,Wedding (Wedding),N/A,N/A,69.0,1.0,true,false,N/A,true,https://www.immobilienscout24.de/expose/132011406
133922082,Spektakuläres DG mit offener Küche - lichtdurchflutet und elegant!,12487,1199.77,N/A,N/A,Berlin,Johannisthal (Treptow),N/A,N/A,68.13,2.0,true,false,N/A,true,https://www.immobilienscout24.de/expose/133922082
133922034,Helle Balkonwohnung mit Dielen und modernem Wannenbad - Trützschlerstraße!,12487,717.55,N/A,N/A,Berlin,Johannisthal (Treptow),N/A,N/A,65.47,2.0,true,false,N/A,false,https://www.immobilienscout24.de/expose/133922034
133528109,NEUBAU! LOFTARTIGE 1-ZIMMER-WOHNUNG MIT BALKON!,13357,655.0,Gottschedstr.,1,Berlin,Wedding (Wedding),52.55011,13.36884,54.64,1.0,true,false,N/A,false,https://www.immobilienscout24.de/expose/133528109
133922015,zu Fuß in die Schossstraße,12157,288.55,Menckenstraße,12,Berlin,Steglitz (Steglitz),52.46149,13.33314,49.41,2.0,true,false,N/A,false,https://www.immobilienscout24.de/expose/133922015
84994794,Friedrichsfelde - Top Single Apartment - Rummelsburger Str. 37,10315,174.14,Rummelsburger Straße,37,Berlin,Friedrichsfelde (Lichtenberg),52.50138,13.5053,24.7,1.0,true,false,N/A,false,https://www.immobilienscout24.de/expose/84994794
133724670,+++ Wunderschöne Altbauwohnung im Herzen Schönebergs +++,10825,2900.0,N/A,N/A,Berlin,Schöneberg (Schöneberg),N/A,N/A,200.0,3.5,true,false,N/A,true,https://www.immobilienscout24.de/expose/133724670
113250310,Helle und freundliche 1-Raum-Wohnung mit Balkon!,12681,286.77,Märkische Allee,60,Berlin,Marzahn (Marzahn),52.52222,13.54154,36.3,1.0,true,false,N/A,false,https://www.immobilienscout24.de/expose/113250310
83695630,Modernisierte 2 Zimmer Wohnung mit Einbauküche in Berlin,12587,819.0,Bölschestr.,74,Berlin,Friedrichshagen (Köpenick),52.45638,13.6249,74.0,2.0,false,true,N/A,true,https://www.immobilienscout24.de/expose/83695630
131820549,Erstbezug Neubau - 4 Zimmerwohnung mit Balkon - Aufzug vorhanden,12687,812.19,Karl-Holtz-Straße,2,Berlin,Marzahn (Marzahn),52.55236,13.56753,81.3,4.0,true,false,N/A,false,https://www.immobilienscout24.de/expose/131820549
131820559,Erstbezug Neubau - Platz für die ganze Familie - Aufzug vorhanden,12687,763.8,Karl-Holtz-Straße,12,Berlin,Marzahn (Marzahn),52.55251,13.56799,80.4,4.0,true,false,N/A,false,https://www.immobilienscout24.de/expose/131820559
131820570,Erstbezug Neubau - Platz für Zwei - Aufzug vorhanden - WBS mit besonderem Wohnbedarf erforderlich!,12687,356.59,Karl-Holtz-Straße,12,Berlin,Marzahn (Marzahn),52.55251,13.56799,54.86,2.0,true,false,N/A,false,https://www.immobilienscout24.de/expose/131820570
131820592,Erstbezug Neubau - schöne geräumige 3-Zimmerwohnung! WBS mit besonderem Wohnbedarf erforderlich!,12687,458.51,Karl-Holtz-Straße,10,Berlin,Marzahn (Marzahn),52.55236,13.56753,70.54,3.0,true,false,N/A,false,https://www.immobilienscout24.de/expose/131820592
133921676,Tauschwohnung: Moderne 3Zi Wohnung mit Spreeblick,10557,907.0,N/A,N/A,Berlin,Tiergarten (Tiergarten),N/A,N/A,86.0,3.0,false,false,N/A,true,https://www.immobilienscout24.de/expose/133921676
133659723,Tauschwohnung: NUR TAUSCH 2-Zimmer im Schillerkiez gegen ab 3-Zimmer,12049,390.0,N/A,N/A,Berlin,Neukölln (Neukölln),N/A,N/A,60.0,2.0,true,false,N/A,false,https://www.immobilienscout24.de/expose/133659723
133659720,Tauschwohnung: Große 1-Zimmerwohnung mit Aussicht in Kreuzberg gg. Größeres,10961,682.0,N/A,N/A,Berlin,Kreuzberg (Kreuzberg),N/A,N/A,65.0,1.5,false,false,N/A,true,https://www.immobilienscout24.de/expose/133659720
132010820,Tauschwohnung: sonnige 2Zimmer Altbau Wohnung mit Balkon ggn 3 Zimmer,13353,480.0,N/A,N/A,Berlin,Wedding (Wedding),N/A,N/A,54.0,2.0,true,false,N/A,true,https://www.immobilienscout24.de/expose/132010820
130501796,Stundentenapartments in WG direkt am Rathaus Schöneberg,10832,750.0,N/A,N/A,Berlin,Schöneberg (Schöneberg),N/A,N/A,40.0,1.0,true,false,N/A,true,https://www.immobilienscout24.de/expose/130501796
133197681,Quartier HUGOS - Perfekt für Singles und Naturliebhaber ,12109,825.59,An der alten Gärtnerei,14,Berlin,Mariendorf (Tempelhof),52.43978,13.41066,48.5,1.5,false,false,N/A,true,https://www.immobilienscout24.de/expose/133197681
133291173,"PERFEKTE SINGLE-WOHNUNG: 2-Zim.-Dachgeschoss mit EBK, Laminat, Wannenbad & Terrasse in Karow...",13125,550.0,Leobschützer Str.,42,Berlin,Karow (Weißensee),52.61817,13.46992,48.9,2.0,true,false,N/A,true,https://www.immobilienscout24.de/expose/133291173
133210452,"Handwerker-Wohnung mit Potenzial, 2 Balkonen und Platz!",12107,485.77,Lankwitzer Straße,7,Berlin,Mariendorf (Tempelhof),52.43654,13.37243,61.85,2.0,true,false,N/A,false,https://www.immobilienscout24.de/expose/133210452
133548828,"Heller, sanierter Altbau zum ""Wohn""fühlen - nicht WG geeignet",10553,733.0,Ufnaustraße,7,Berlin,Tiergarten (Tiergarten),52.53007,13.31725,66.58,2.0,false,false,N/A,false,https://www.immobilienscout24.de/expose/133548828
133548972,schöne Singlewohnung mit Wannenbad,10553,455.0,Ufnaustraße,7,Berlin,Tiergarten (Tiergarten),52.53007,13.31725,37.4,1.0,false,false,N/A,false,https://www.immobilienscout24.de/expose/133548972
130875770,Ruhiges Schlafzimmer und Leben vor der Tür!,10318,802.0,Marksburgstr.,55,Berlin,Karlshorst (Lichtenberg),52.48666,13.52734,66.05,2.0,false,false,N/A,false,https://www.immobilienscout24.de/expose/130875770
133559531,Single-Traum in Lichtenberg!,10315,626.21,Rummelsburger Straße,22,Berlin,Friedrichsfelde (Lichtenberg),52.5034,13.5087,48.17,1.5,false,false,N/A,false,https://www.immobilienscout24.de/expose/133559531
128519757,"Großzügige 4-Zimmer-Wohnung mit Kamin, Wasserblick, 3 Terrassen, 2 Bäder!",12557,2915.0,Möllhausenufer,08,Berlin,Köpenick (Köpenick),52.41376,13.59178,229.8,4.0,true,false,N/A,true,https://www.immobilienscout24.de/expose/128519757
133916346,"Sanierte helle 2-ZKB mit Südbalkon, Parkettboden, neuer Einbauküche in Berlin-Steglitz",12169,1085.0,N/A,N/A,Berlin,Steglitz (Steglitz),N/A,N/A,58.0,2.0,true,true,N/A,true,https://www.immobilienscout24.de/expose/133916346
133916230,Helle 3-Zi Wohnung auf Parkgrundstück mit Parkett- und Granitböden und 2 Balkonen,12305,1200.0,Geibelstraße,42,Berlin,Lichtenrade (Tempelhof),52.4066,13.3922,89.0,3.0,true,true,N/A,true,https://www.immobilienscout24.de/expose/133916230
89687294,Ku´damm-Seitenstraße am Savignyplatz,10623,1250.0,N/A,N/A,Berlin,Charlottenburg (Charlottenburg),N/A,N/A,58.0,2.0,false,false,N/A,true,https://www.immobilienscout24.de/expose/89687294
133645933,Potsdamer Platz: Neubauwohnung im Erstbezug provisionsfrei zu vermieten,10785,1230.0,Lützowstraße,107,Berlin,Tiergarten (Tiergarten),52.50148,13.36966,41.99,2.0,true,false,N/A,true,https://www.immobilienscout24.de/expose/133645933
133404765,Willkommen in Berlin - Große Terrasse und eigener Garten inklusive,13587,1430.0,Schlehenweg,1,Berlin,Spandau (Spandau),52.56803,13.20591,80.0,3.0,true,true,N/A,true,https://www.immobilienscout24.de/expose/133404765
133915904,"Freundliche 1-Zimmer-Wohnung mit EBK in Tegel (Reinickendorf), Berlin",13507,480.0,Berlinerstr,4,Berlin,Tegel (Reinickendorf),52.58905,13.28358,40.0,1.0,false,false,N/A,true,https://www.immobilienscout24.de/expose/133915904
133806638,"stilvolle, geräumige 3 Zimmer Neubauwohnung in Bestlage Wilmersdorf",10713,2300.0,Wilhelmsaue,32,Berlin,Wilmersdorf (Wilmersdorf),52.48546,13.31888,115.24,3.0,true,false,N/A,true,https://www.immobilienscout24.de/expose/133806638
133806441,"Sonnige 2,5 Zi. Altbauwohnung mit Charme",13409,875.47,N/A,N/A,Berlin,Reinickendorf (Reinickendorf),N/A,N/A,78.73,2.5,true,true,N/A,true,https://www.immobilienscout24.de/expose/133806441
133806375,"hochwertig, hell und ruhig",10115,1957.0,Invalidenstraße,1,Berlin,Mitte (Mitte),52.53276,13.39848,71.09,2.0,true,false,N/A,true,https://www.immobilienscout24.de/expose/133806375
132562423,"Behagliches Wohnen in beliebter Wohnanlage, Einbauküche, Wintergarten, PKW-Stellplatz",12349,672.8,Parksiedlung Spruch,3 bis 137,Berlin,Buckow (Neukölln),52.42152,13.41206,59.33,1.5,true,false,N/A,true,https://www.immobilienscout24.de/expose/132562423
133914076,"Gepflegte 3-Zimmer-DG-Wohnung mit Einbauküche in Marienfelde (Tempelhof), Berlin",12277,785.0,Marienfelder Allee,141a,Berlin,Marienfelde (Tempelhof),52.41394,13.36435,89.0,3.0,false,false,N/A,true,https://www.immobilienscout24.de/expose/133914076
133804305,"3Zi in Stadtvilla mit Garten in Pankow Rosenthal sonnig, ruhig+grün",13158,964.0,N/A,N/A,Berlin,Rosenthal (Pankow),N/A,N/A,88.0,3.0,true,false,N/A,false,https://www.immobilienscout24.de/expose/133804305
133386374,"Kleine charmante Wohnung  mit amerikanischer Küche, Wintergarten und Tiefgaragenstellplatz",12349,494.73,Parksiedlung Spruch,3-137,Berlin,Buckow (Neukölln),52.42151,13.41205,46.41,1.5,false,false,N/A,true,https://www.immobilienscout24.de/expose/133386374
133912230,"Gepflegte 3-Zimmer-Wohnung mit Balkon und Einbauküche in Wedding, Berlin",13349,1280.0,Londonerstr.,xxx,Berlin,Wedding (Wedding),52.56061,13.34013,86.53,3.0,true,false,N/A,true,https://www.immobilienscout24.de/expose/133912230
133910750,"4-Zi. Luxuswohnung in nobler Stadtvilla im Diplomatenpark / Concierge, Kamin und Klimaanlage",10785,5000.0,Clara-Wieck-Straße,9,Berlin,Tiergarten (Tiergarten),52.50818,13.35584,179.0,4.0,true,false,N/A,true,https://www.immobilienscout24.de/expose/133910750
131800835,Tauschwohnung: 3-Z. Altbau Whg. am Breslauer Platz (Friedenau)  gegen 5-Zi.,12159,782.0,N/A,N/A,Berlin,Friedenau (Schöneberg),N/A,N/A,89.0,3.0,true,false,N/A,false,https://www.immobilienscout24.de/expose/131800835
133875841,Freelancer only: Sonniges Single-DG mit Terrassen im Winsviertel - Termin nur tel. 030 80904141,10405,1468.0,Jablonskistraße,14,Berlin,Prenzlauer Berg (Prenzlauer Berg),52.537,13.42643,86.0,2.0,true,false,N/A,false,https://www.immobilienscout24.de/expose/133875841
125062843,Möbliertes Premium Appartement mit Highlights im modernen Berlin-Adlershof,12489,491.0,Rudower Chaussee,5a-c,Berlin,Adlershof (Treptow),52.42805,13.52935,23.94,1.0,false,false,N/A,true,https://www.immobilienscout24.de/expose/125062843
133802256,Erstbezug - Hochwertige Ausstattung,10557,1738.53,Am Hamburger Bahnhof,2,Berlin,Tiergarten (Tiergarten),52.5295,13.37128,64.39,2.0,true,false,N/A,true,https://www.immobilienscout24.de/expose/133802256
133646956,Tauschwohnung: 64m2 2-Zimmer Altbauwohnung mit Balkon gegen mind. 3 Zimmer,10245,499.0,N/A,N/A,Berlin,Friedrichshain (Friedrichshain),N/A,N/A,64.0,2.0,true,false,N/A,false,https://www.immobilienscout24.de/expose/133646956
80260750,"Tegel: Schicke Komfortwohnung, grün, sonnig, zentral",13509,640.0,Klinnerweg,00,Berlin,Wittenau (Reinickendorf),52.58558,13.30478,40.0,2.0,true,false,N/A,true,https://www.immobilienscout24.de/expose/80260750
133910287,"Modernisierte 3-Zimmer-DG-Wohnung mit Balkon und Einbauküche in Niederschönhausen (Pankow), Berlin",13156,1400.0,Platanenstraße,96,Berlin,Niederschönhausen (Pankow),52.58382,13.39218,84.0,3.0,true,false,N/A,true,https://www.immobilienscout24.de/expose/133910287
127112545,Single oder Pärchen gesucht,12627,500.0,Louis-Lewin-Straße,27,Berlin,Hellersdorf (Hellersdorf),52.53414,13.6214,50.0,2.0,true,false,N/A,true,https://www.immobilienscout24.de/expose/127112545
133298995,Befristet und möblierte 3-Zimmer Wohnung im Herzen Friedrichshains,10427,1088.0,N/A,N/A,Berlin,Friedrichshain (Friedrichshain),N/A,N/A,89.0,3.0,true,false,N/A,false,https://www.immobilienscout24.de/expose/133298995
133909400,"Modernisierte 2,5-Zimmer-Dachgeschosswohnung mit Balkon und EBK in Tiergarten, Berlin",10555,1700.0,Jagowstraße,9,Berlin,Tiergarten (Tiergarten),52.52173,13.33432,78.6,2.5,true,false,N/A,true,https://www.immobilienscout24.de/expose/133909400
108519476,3 Zimmer Wohnung mit ca. 60 m² in Berlin Hermsdorf zu Vermieten,13467,760.0,Kurze Str.,5,Berlin,Hermsdorf (Reinickendorf),52.62327,13.29834,60.0,3.0,true,false,N/A,false,https://www.immobilienscout24.de/expose/108519476
131887846,Tauschwohnung: Tolle 3 Zimmerwhg + Wintergarten geg. 3 Zimmerwhg mit Balkon,10249,740.0,N/A,N/A,Berlin,Friedrichshain (Friedrichshain),N/A,N/A,74.0,3.0,false,false,N/A,false,https://www.immobilienscout24.de/expose/131887846
133509621,Tauschwohnung: Traum- Dachgeschoss mit Terrasse in Schöneberg / Goltzkiez,10823,1500.0,N/A,N/A,Berlin,Schöneberg (Schöneberg),N/A,N/A,120.0,4.0,true,false,N/A,true,https://www.immobilienscout24.de/expose/133509621
116269210,Schöne 2-Raum-Wohnung mit Balkon und Einbauküche in Berlin-Weißensee,13086,911.84,Friesickestraße,7,Berlin,Weißensee (Weißensee),52.55159,13.43914,58.1,2.0,true,false,N/A,true,https://www.immobilienscout24.de/expose/116269210
132764000,Die Kunst des ruhigen Wohnens am pulsierenden Zentrum Berlins,10777,3150.0,N/A,N/A,Berlin,Wilmersdorf (Wilmersdorf),N/A,N/A,151.68,4.0,false,false,N/A,true,https://www.immobilienscout24.de/expose/132764000
133798740,"...mit Sonnenbalkon - Grüntaler 64 - nahe S1,  Bornholmer Straße",13359,1372.0,Grüntalerstr,64,Berlin,Wedding (Wedding),52.55739,13.39414,88.52,3.0,true,false,N/A,false,https://www.immobilienscout24.de/expose/133798740
133907943,"Schöne, geräumige 2-Zimmer-Wohnung in Berlin, Französisch Buchholz (Pankow)",13127,770.0,Aubertstraße,1-30,Berlin,Französisch Buchholz (Pankow),52.60885,13.41692,70.0,2.0,true,false,N/A,false,https://www.immobilienscout24.de/expose/133907943
133906665,Neuwertige 3-Zimmer-Wohnung in einer Jugendstilvilla,13127,891.0,N/A,N/A,Berlin,Französisch Buchholz (Pankow),N/A,N/A,81.0,3.0,false,false,N/A,true,https://www.immobilienscout24.de/expose/133906665
133023844,Maison Roseneck: Exklusive Single-Wohnung mit Sonnenbalkon im Erstbezug,14199,1123.0,Ruhlaer Straße,21,Berlin,Schmargendorf (Wilmersdorf),52.47785,13.28436,43.2,2.0,true,false,N/A,true,https://www.immobilienscout24.de/expose/133023844
103712458,"3,5 Zimmer Maisonette-Wohnung möbliert befristet zu vermieten (ab 01.09.2022)",12205,1700.0,Züricher Straße,8,Berlin,Lichterfelde (Steglitz),52.42725,13.29319,90.0,3.5,false,true,N/A,true,https://www.immobilienscout24.de/expose/103712458
133797074,Tauschwohnung: Schöne 3Zi Altbauwohnung in Pberg,10405,930.0,N/A,N/A,Berlin,Prenzlauer Berg (Prenzlauer Berg),N/A,N/A,85.0,3.0,true,false,N/A,false,https://www.immobilienscout24.de/expose/133797074
132286505,+++ 2-Zimmerwohnung in Rudow +++ *WBS mit Dringlichkeit*,12355,415.07,Köpenicker Straße,145 A,Berlin,Rudow (Neukölln),52.42161,13.50442,64.46,2.0,true,false,N/A,true,https://www.immobilienscout24.de/expose/132286505
131210906,+++ 1-Zimmerwohnung für Senioren +++,10318,485.31,Eginhardstraße,7,Berlin,Karlshorst (Lichtenberg),52.4781,13.52328,48.58,1.0,false,false,N/A,false,https://www.immobilienscout24.de/expose/131210906
133465227,013 Attr. 2 Zimmerwohnung nahe Altstadt Spandau mit Balkon sucht Mieter ,13585,649.2,Falkenhagener Straße,47,Berlin,Spandau (Spandau),52.54638,13.19902,71.0,2.0,false,false,N/A,false,https://www.immobilienscout24.de/expose/133465227
133404653,3 Zimmerwohnung in Köpenick mit Balkon und EBK sucht neuen Mieter,12555,1095.0,Bahnhofstraße,61b,Berlin,Köpenick (Köpenick),52.45331,13.57426,67.0,3.0,true,false,N/A,true,https://www.immobilienscout24.de/expose/133404653
133575467,wunderschöne sonnige 2-Zimmerwohnung mit großzügiger Terrasse,12559,728.01,Philipp-Jacob-Rauch-Straße,88,Berlin,Müggelheim (Köpenick),52.41562,13.64858,72.49,2.0,true,false,N/A,false,https://www.immobilienscout24.de/expose/133575467
133741898,Moderne 4-Zimmer-Wohnung im schönen Müggelheim mit Balkon!,12559,1205.0,Alsenzer Weg,1,Berlin,Müggelheim (Köpenick),52.41284,13.65975,86.07,4.0,true,false,N/A,false,https://www.immobilienscout24.de/expose/133741898
133791470,Tauschwohnung: Sanierter Altbau mit 2 Balkonen in F-Hain gg. 4+Z in KB/NK,10407,1267.0,N/A,N/A,Berlin,Prenzlauer Berg (Prenzlauer Berg),N/A,N/A,143.0,4.0,true,false,N/A,true,https://www.immobilienscout24.de/expose/133791470
133791294,Schöne 2-Zi.-Wohnung mit großem,12527,750.0,N/A,N/A,Berlin,Schmöckwitz (Köpenick),N/A,N/A,65.0,2.0,true,false,N/A,false,https://www.immobilienscout24.de/expose/133791294
133140354,"Tauschwohnung: Gut geschnittene 1 ZWG m. Terasse, top Lage (SCHÖ) gg 2 ZWG",10777,500.0,N/A,N/A,Berlin,Schöneberg (Schöneberg),N/A,N/A,53.0,1.0,false,true,N/A,false,https://www.immobilienscout24.de/expose/133140354
133788805,"Erstbezug: schöne 1-Zimmer-Wohnung mit Einbauküche und Balkon in Friedrichshain, Berlin",10243,1000.0,Mühlenstraße,20,Berlin,Friedrichshain (Friedrichshain),52.50568,13.44091,30.07,1.0,true,true,N/A,true,https://www.immobilienscout24.de/expose/133788805
115709190,"Mit EBK und Balkon: möbliertes 1-Zimmer-Apartment in Neukölln, Berlin",12051,595.0,Silbersteinstraße,54,Berlin,Neukölln (Neukölln),52.46677,13.43324,22.0,1.0,true,false,N/A,true,https://www.immobilienscout24.de/expose/115709190
133789171,"Tauschwohnung: Suche Berlin Schöneberg und Umgebung, biete Berlin, Schöneberg",10825,518.0,N/A,N/A,Berlin,Schöneberg (Schöneberg),N/A,N/A,67.0,2.0,false,false,N/A,true,https://www.immobilienscout24.de/expose/133789171
131880942,"Erstbezug mit grosser Terrasse Dachgeschoss Wohnung in Bohnsdorf (Treptow), Berlin",12526,1150.0,N/A,N/A,Berlin,Bohnsdorf (Treptow),N/A,N/A,78.0,2.0,true,true,N/A,false,https://www.immobilienscout24.de/expose/131880942
131880683,Tauschwohnung: schöne 1 Zimmer Wohnung im Schillerkiez g. 2-3 Zimmer,12049,386.0,N/A,N/A,Berlin,Neukölln (Neukölln),N/A,N/A,40.0,1.0,false,false,N/A,false,https://www.immobilienscout24.de/expose/131880683
133247225,"Erstbezug nach Sanierung mit EBK und Balkon: freundliche 2-Zimmer-Wohnung in Wilmersdorf, Berlin",10171,950.0,Landhausstr.,4,Berlin,Wilmersdorf (Wilmersdorf),52.49164,13.32831,55.09,2.0,true,false,N/A,true,https://www.immobilienscout24.de/expose/133247225
133897965,"Ein-Zimmer-Wohnung in Berlin, OT Schmargendorf (Wilmersdorf)",14193,419.25,N/A,N/A,Berlin,Schmargendorf (Wilmersdorf),N/A,N/A,33.54,1.0,true,false,N/A,false,https://www.immobilienscout24.de/expose/133897965
133852490,Möbliert: Wunderschöne 3-Zimmer-Maisonette im Simon-Dach-Kiez,10245,1949.99,N/A,N/A,Berlin,Friedrichshain (Friedrichshain),N/A,N/A,85.0,3.0,false,false,N/A,false,https://www.immobilienscout24.de/expose/133852490
133895665,"Erstbezug mit Balkon: schöne 4-Zimmer-Wohnung in Tiergarten, Berlin",10785,2100.0,Lützowstraße,107,Berlin,Tiergarten (Tiergarten),52.50148,13.36966,98.44,4.0,true,false,N/A,false,https://www.immobilienscout24.de/expose/133895665
133499354,Neubau Projekt M27 Ansprechende 3-Raum-Wohnung mit EBK und Balkon in Berlin Pankow/Prenzlauer Berg,13187,2000.0,Mühlenstraße,27,Berlin,Pankow (Pankow),52.56327,13.40833,84.0,3.0,true,false,N/A,true,https://www.immobilienscout24.de/expose/133499354
133115284,2-Zimmer-Wohnung mit WBS für 2-Räume,10365,500.2,Frankfurter Allee,218,Berlin,Lichtenberg (Lichtenberg),52.51144,13.49811,61.0,2.0,true,false,N/A,false,https://www.immobilienscout24.de/expose/133115284
133115280,1-Zimmer-Wohnung mit WBS erforderlich,10365,344.4,Frankfurter Allee,218,Berlin,Lichtenberg (Lichtenberg),52.51144,13.49811,42.0,1.0,false,false,N/A,false,https://www.immobilienscout24.de/expose/133115280
133895088,"Stilvolle, vollständig renovierte 3-Zimmer-Wohnung mit Einbauküche in Charlottenburg, Berlin",14052,1312.5,Preußenallee,34,Berlin,Charlottenburg (Charlottenburg),52.51489,13.26067,87.5,3.0,false,true,N/A,true,https://www.immobilienscout24.de/expose/133895088
106350242,"Exklusive, neuwertige 3-Zimmer-Wohnung mit Balkon und EBK in Berlin",14169,1700.0,N/A,N/A,Berlin,Zehlendorf (Zehlendorf),N/A,N/A,100.0,3.0,true,true,N/A,true,https://www.immobilienscout24.de/expose/106350242
133627365,Vollmöblierte 4-Zimmer-Luxuswohnung im Herzen Berlins,10115,2900.0,Chausseestr.,37,Berlin,Mitte (Mitte),52.53343,13.37989,111.0,4.0,true,false,N/A,true,https://www.immobilienscout24.de/expose/133627365
133780511,Tauschwohnung: 3-Zimmer Wohnung in Neukölln - suchen größerer Wohnung ,12053,650.0,N/A,N/A,Berlin,Neukölln (Neukölln),N/A,N/A,88.0,3.0,true,false,N/A,true,https://www.immobilienscout24.de/expose/133780511
133780507,Tauschwohnung: 3 Zimmer Altbauwohnung im Herzen Kreuzbergs ,10997,600.0,N/A,N/A,Berlin,Kreuzberg (Kreuzberg),N/A,N/A,92.0,3.0,false,false,N/A,true,https://www.immobilienscout24.de/expose/133780507
133627267,"Tauschwohnung: 2,5 Zimmer Erdgeschoss (HH) in Kreuzkölln gegen größere Whg",12047,610.0,N/A,N/A,Berlin,Neukölln (Neukölln),N/A,N/A,70.0,2.5,false,false,N/A,true,https://www.immobilienscout24.de/expose/133627267
133894382,Super schöne 2 Zimmer Wohnung mit hochwertigen Möbeln und toller Austattung direkt an der East Side,10243,2020.0,Mühlenstraße,20,Berlin,Friedrichshain (Friedrichshain),52.50568,13.44091,53.0,2.0,true,false,N/A,true,https://www.immobilienscout24.de/expose/133894382
133894140,Exclusive 2 Zimmer Wohnung mit wunderschönen Möbeln und hochwertiger Austattung direkt an der East S,10243,2100.0,Mühlenstraße,20,Berlin,Friedrichshain (Friedrichshain),52.50568,13.44091,52.0,2.0,true,false,N/A,true,https://www.immobilienscout24.de/expose/133894140
129727486,*helle 2-Zimmerwohnung mit EBK in Nähe der Schloßstraße - WBS-Schein erforderlich!*,12157,749.97,Knausstraße,7,Berlin,Steglitz (Steglitz),52.46513,13.33861,60.53,2.0,true,false,N/A,false,https://www.immobilienscout24.de/expose/129727486
133554831,Komplett eingerichtetes Apartment mit besten high-tech Geräten,10179,1600.0,Stallschreiberstr.,16,Berlin,Mitte (Mitte),52.50671,13.4076,51.0,2.0,true,true,N/A,true,https://www.immobilienscout24.de/expose/133554831
133554734,Gemütliches High Tech Apartment mit modernster Technik,10179,1600.0,Stallschreiberstr.,16,Berlin,Mitte (Mitte),52.50671,13.4076,51.0,2.0,true,true,N/A,true,https://www.immobilienscout24.de/expose/133554734
133548170,Exclusive möblierte 3 Zimmer Design-Wohnung in Berlin-Mitte mit Delux Ausstattung,10179,4000.0,Alte Jakobstrasse,102,Berlin,Mitte (Mitte),52.50857,13.40542,100.0,3.0,true,true,N/A,true,https://www.immobilienscout24.de/expose/133548170
132825276,Superhelle Altbauwohnung in KuDamm-Nähe,10707,2000.0,Brandenburgische str,46,Berlin,Wilmersdorf (Wilmersdorf),52.496,13.30788,100.0,2.0,false,false,N/A,true,https://www.immobilienscout24.de/expose/132825276
133226016,Neue Dachgeschoß/Maisonette Wohnung,10623,3072.5,Goethestr,77,Berlin,Charlottenburg (Charlottenburg),52.50886,13.31946,128.02,5.0,true,false,N/A,true,https://www.immobilienscout24.de/expose/133226016
133578236,2-Zimmerwohnung mitten im Grünen mit Balkon,12559,586.62,Philipp-Jacob-Rauch-Straße,82,Berlin,Müggelheim (Köpenick),52.41586,13.64904,58.78,2.0,true,false,N/A,false,https://www.immobilienscout24.de/expose/133578236
133741608,Gemütliche 2-Zimmer-Wohnung mit größer Terrasse im Fischerkietz!,12555,1270.0,Gartenstraße,59,Berlin,Köpenick (Köpenick),52.46047,13.58753,79.4,2.0,true,false,N/A,true,https://www.immobilienscout24.de/expose/133741608
133889301,"1 Jahr befristet, 5-Raumwohnung + Garten + TG-Stellplatz zu vermieten, 135qm, Friedrichshagen",12587,1500.0,Scharnweberstraße,x,Berlin,Friedrichshagen (Köpenick),52.45085,13.62767,135.0,5.0,true,true,N/A,false,https://www.immobilienscout24.de/expose/133889301
133889128,"Erstbezug mit Terrasse: schöne 3-Zimmer-EG-Wohnung in Kaulsdorf (Hellersdorf), Berlin",12621,1160.0,Landréstraße,6a,Berlin,Kaulsdorf (Hellersdorf),52.51395,13.60213,85.95,3.0,true,true,N/A,false,https://www.immobilienscout24.de/expose/133889128
133772560,"Perfekte Single-Wohnung mit Parkett, Balkon & Wannenbad im Erdgeschoss..... MITTEN IN SCHÖNEBERG!",10779,600.0,Martin-Luther-Str.,49,Berlin,Schöneberg (Schöneberg),52.49266,13.34548,37.0,1.0,true,false,N/A,true,https://www.immobilienscout24.de/expose/133772560
133888823,UNTERVERMIETUNG:  AB 1. SEPT. BIS MITTE DEZ. 2022 - Sanierte 1-Zimmer-Wohnung mit EBK in Berlin,14059,650.0,Schloßstraße,33,Berlin,Charlottenburg (Charlottenburg),52.51225,13.29773,35.0,1.0,false,false,N/A,true,https://www.immobilienscout24.de/expose/133888823
133003457,+++ Superior Residence ++ Idealer Rückzugsort für Ihren Aufenthalt in Berlin,10117,18000.0,Schinkelplatz,3,Berlin,Mitte (Mitte),52.51631,13.39819,156.5,3.0,true,false,N/A,true,https://www.immobilienscout24.de/expose/133003457
133614941,"Schöne, geräumige 2 Zimmer Wohnung in Berlin, Mitte",10119,950.0,Fehrbelliner Straße,52a,Berlin,Mitte (Mitte),52.53405,13.40151,63.66,1.5,true,false,N/A,true,https://www.immobilienscout24.de/expose/133614941
133525231,"Erstbezug nach Sanierung mit Einbauküche und Balkon: schöne 2-Zimmer-Wohnung in Steglitz, Berlin",12165,1350.0,Schloßstr.,69,Berlin,Steglitz (Steglitz),52.4536,13.31804,55.0,2.0,true,false,N/A,true,https://www.immobilienscout24.de/expose/133525231
129638027,Wohnen am Müggelsee,12587,1670.0,Josef-Nawrocki-Straße,36,Berlin,Friedrichshagen (Köpenick),52.44559,13.62861,90.0,3.0,true,true,N/A,false,https://www.immobilienscout24.de/expose/129638027
133770237,Ihre neue 1-Zimmer Wohnung nahe dem Volkspark Lichtenrade!,12309,351.5,Groß-Ziethener Str.,78,Berlin,Lichtenrade (Tempelhof),52.39419,13.41785,42.38,1.0,true,false,N/A,false,https://www.immobilienscout24.de/expose/133770237
133770233,Ihre neue geräumige Dachgeschosswohnung nahe Schlossstraße im Herzen von Berlin-Steglitz!,12163,583.22,Schildhornstraße 73 a,-,Berlin,Steglitz (Steglitz),52.46393,13.31761,70.04,3.0,false,false,N/A,false,https://www.immobilienscout24.de/expose/133770233
133770228,Ihre neue 2-Zimmer-Wohnung am Mariendorfer Damm im ruhigen Seitenflügel,12109,451.63,Mariendorfer Damm,45,Berlin,Mariendorf (Tempelhof),52.44873,13.38556,54.67,2.0,true,false,N/A,false,https://www.immobilienscout24.de/expose/133770228
133770218,Schöne 2-Zimmerwohnung in Charlottenburg!,10625,538.79,Bismarckstraße 102 b,-,Berlin,Charlottenburg (Charlottenburg),52.51216,13.31508,58.52,2.0,false,false,N/A,false,https://www.immobilienscout24.de/expose/133770218
133770215,Ihre neue Wohnung mit Dachterrasse und EBK in Mariendorf ! Nur WBS,12105,538.46,Kurfürstenstr.,84,Berlin,Mariendorf (Tempelhof),52.44809,13.37568,70.91,2.5,true,false,N/A,true,https://www.immobilienscout24.de/expose/133770215
133002558,"Tauschwohnung: Wedding, 550€ warm gg. 3+ Zimmer im Norden",13357,399.0,N/A,N/A,Berlin,Wedding (Wedding),N/A,N/A,74.0,2.5,true,true,N/A,true,https://www.immobilienscout24.de/expose/133002558
133615566,Möbiliertes Studio Appartement an der Spree - in Köpenick,12555,767.0,Lindenstraße,28,Berlin,Köpenick (Köpenick),52.45316,13.568,36.0,1.0,false,false,N/A,false,https://www.immobilienscout24.de/expose/133615566
133001241,Erstbezug eines exklusiven 2-Zimmer Penthouses mit Dachterrasse,10179,3350.0,Dresdener Str.,108,Berlin,Mitte (Mitte),52.50561,13.41418,144.6,2.0,true,true,N/A,true,https://www.immobilienscout24.de/expose/133001241
133886569,Wohnung Gustav-Müller-Straße - Suite with balcony,10829,1190.0,Gustav-Müller-Straße,36A,Berlin,Schöneberg (Schöneberg),52.48175,13.36284,30.0,1.0,false,false,N/A,false,https://www.immobilienscout24.de/expose/133886569
133886568,Wohnung Gustav-Müller-Straße - Juniorsuite,10829,1190.0,Gustav-Müller-Straße,36A,Berlin,Schöneberg (Schöneberg),52.48175,13.36284,30.0,1.0,false,false,N/A,false,https://www.immobilienscout24.de/expose/133886568
133886565,Wohnung Gustav-Müller-Straße - Studio ,10829,1190.0,Gustav-Müller-Straße,36A,Berlin,Schöneberg (Schöneberg),52.48175,13.36284,30.0,1.0,false,false,N/A,false,https://www.immobilienscout24.de/expose/133886565
133886564,Wohnung Gustav-Müller-Straße - Apartment ,10829,1290.0,Gustav-Müller-Straße,36A,Berlin,Schöneberg (Schöneberg),52.48175,13.36284,36.0,1.0,false,false,N/A,false,https://www.immobilienscout24.de/expose/133886564
133886563,Wohnung Gustav-Müller-Straße - Familienapartment ,10829,1390.0,Gustav-Müller-Straße,36A,Berlin,Schöneberg (Schöneberg),52.48175,13.36284,60.0,2.0,false,false,N/A,false,https://www.immobilienscout24.de/expose/133886563
131216552,Handwerker aufgepasst: 2 Zimmer Wohnung mit Balkon in Spandau nahe Spektesee!,13589,386.51,Falkenseer Chaussee,167,Berlin,Spandau (Spandau),52.55243,13.15376,64.0,2.0,true,false,N/A,false,https://www.immobilienscout24.de/expose/131216552
133886066,"Wohnung 2-Zimmer, Flugfeld Tempelhof, sonnig!",12101,1299.0,Gontermannstraße,5,Berlin,Tempelhof (Tempelhof),52.48049,13.37217,37.0,1.0,false,false,N/A,false,https://www.immobilienscout24.de/expose/133886066
133885888,Wohnung Studio,10557,1040.0,Lehrter Straße,24b,Berlin,Tiergarten (Tiergarten),52.53162,13.36208,37.0,1.0,false,false,N/A,false,https://www.immobilienscout24.de/expose/133885888
133885855,Wohnung Apartment - Schloßstraße ,14059,2090.0,Schloßstraße,38,Berlin,Charlottenburg (Charlottenburg),52.51295,13.29765,41.0,1.0,false,false,N/A,false,https://www.immobilienscout24.de/expose/133885855
133885854,Wohnung Novalisstraße - Apartment,10115,2400.0,Novalisstraße,7,Berlin,Mitte (Mitte),52.52898,13.38881,40.0,1.0,false,false,N/A,false,https://www.immobilienscout24.de/expose/133885854
133885853,Wohnung Dream Apartment - Ackerstraße ,10115,5550.0,Ackerstraße,30,Berlin,Mitte (Mitte),52.53334,13.39502,150.0,2.0,false,false,N/A,false,https://www.immobilienscout24.de/expose/133885853
133885852,Wohnung Apartment - Bötzow Viertel ,10407,2395.0,Hufelandstraße,32,Berlin,Prenzlauer Berg (Prenzlauer Berg),52.53077,13.43403,65.0,1.0,false,false,N/A,false,https://www.immobilienscout24.de/expose/133885852
133689248,Home Select L | 81m² Wohnung mit 3 Zimmern in Berlin,13469,1460.0,Rue Montesquieu,15,Berlin,Waidmannslust (Reinickendorf),52.60324,13.32097,81.0,3.0,true,false,N/A,true,https://www.immobilienscout24.de/expose/133689248
133881898,Möbliertes Privates-Zimmer in 4-er-WG in Friedrichschain,10245,589.0,Krossener Str.,22,Berlin,Friedrichshain (Friedrichshain),52.51023,13.45949,13.0,1.0,true,false,N/A,true,https://www.immobilienscout24.de/expose/133881898
133230611,Modernes Möbliertes Loft mit Blick ins Grüne in historischen Mauern / Berlin Steglitz Zehlendorf,14167,1150.0,Platz des 4. Juli,18,Berlin,Lichterfelde (Steglitz),52.41964,13.28695,48.0,1.0,true,false,N/A,true,https://www.immobilienscout24.de/expose/133230611
133230611,Modernes Möbliertes Loft mit Blick ins Grüne in historischen Mauern / Berlin Steglitz Zehlendorf,14167,1150.0,Platz des 4. Juli,18,Berlin,Lichterfelde (Steglitz),52.41964,13.28695,48.0,1.0,true,false,N/A,true,https://www.immobilienscout24.de/expose/133230611
133048693,3-Zimmer Wohnung mit großem Balkon im 14. Stock,12681,371.25,Helene-Weigel-Platz,13,Berlin,Marzahn (Marzahn),52.52711,13.54014,70.85,3.0,true,false,N/A,false,https://www.immobilienscout24.de/expose/133048693
133884195,"Belfaster Straße 32-33, 13349 Berlin",13349,820.0,Belfaster Straße,32-33,Berlin,Wedding (Wedding),52.5618,13.33757,36.0,1.0,false,true,N/A,true,https://www.immobilienscout24.de/expose/133884195
133350075,160 qm / 4. OG VH + SFL / 4 Zimmer / nahe Ku´damm und KaDeWe / Kein Aufzug,10789,2000.0,N/A,N/A,Berlin,Wilmersdorf (Wilmersdorf),N/A,N/A,160.13,4.0,false,false,N/A,true,https://www.immobilienscout24.de/expose/133350075
133231404,Elegante Wohnung mit Loft-Charakter im historischen Ensemble - möbliert!,10435,2933.0,Schönhauser Allee,22a-c,Berlin,Prenzlauer Berg (Prenzlauer Berg),52.5337,13.41316,108.0,2.0,true,false,N/A,true,https://www.immobilienscout24.de/expose/133231404
133765636,Singles und Pärchen aufgepasst: Schöne 2-Zi.-Whg. in Berlin,12627,556.0,Martin-Riesenburger-Straße,44,Berlin,Hellersdorf (Hellersdorf),52.53383,13.61452,46.42,2.0,true,false,N/A,false,https://www.immobilienscout24.de/expose/133765636
133611976,3-Zimmer Wohnung mit Balkon in Mitte/Kreuzberg,10179,1683.0,Stallschreiberstraße,26,Berlin,Mitte (Mitte),52.50828,13.40684,67.0,3.0,false,false,N/A,false,https://www.immobilienscout24.de/expose/133611976
133485418,Wohnen in der City! Helles Apartment sucht Nachmieter!,10625,1149.0,Bismarckstraße ,4,Berlin,Charlottenburg (Charlottenburg),52.51274,13.31892,65.23,2.0,true,false,N/A,false,https://www.immobilienscout24.de/expose/133485418
133883813,Erstbezug nach Komplettsanierung - 2-Zimmerwohnung im Stephankiez,10559,918.0,Perleberger Straße,26,Berlin,Tiergarten (Tiergarten),52.5323,13.3493,51.0,2.0,false,false,N/A,false,https://www.immobilienscout24.de/expose/133883813
133480215,Möblierte Luxuswohnung im Herzen von Grunewald,14195,8000.0,N/A,N/A,Berlin,Schmargendorf (Wilmersdorf),N/A,N/A,197.0,4.0,true,true,N/A,true,https://www.immobilienscout24.de/expose/133480215
133883724,Vollmöblierte Wohnung in zentraler Lage - Inklusive W-LAN und Strom,13407,899.0,Alt-Reinickendorf,54,Berlin,Reinickendorf (Reinickendorf),52.57439,13.35622,27.71,1.0,false,false,N/A,true,https://www.immobilienscout24.de/expose/133883724
133484711,2 Zimmer in Pankow mit WBS,13189,570.0,Eschengraben,17 a,Berlin,Pankow (Pankow),52.55656,13.41703,60.08,2.0,true,false,N/A,false,https://www.immobilienscout24.de/expose/133484711
133354708,"Neubau mit EBK, Aufzug und Balkon 1 Zimmer Studio",10315 ,730.0,Allee der Kosmonauten,25A,Berlin,Friedrichsfelde (Lichtenberg),52.52644,13.51859,29.7,1.0,true,false,N/A,true,https://www.immobilienscout24.de/expose/133354708
133883414,Bürowohnung im Ärztehaus Dörpfeldstraße 52 (nur teilgewerbliche Anmietung),12489,1180.0,Dörpfeldstraße,52,Berlin,Adlershof (Treptow),52.4386,13.54944,98.3,3.0,true,false,N/A,false,https://www.immobilienscout24.de/expose/133883414
131596875,Moderne Wohngemeinschaft mit 4 Zimmern im skandinavischen Stil,12209,2900.0,Kaiserstr.,4,Berlin,Lichterfelde (Steglitz),52.41776,13.32501,73.0,4.0,true,false,N/A,true,https://www.immobilienscout24.de/expose/131596875
133354091,"Neuwertige 2-Zimmer-Wohnung mit EBK in Hermsdorf (Reinickendorf), Berlin",13467,900.0,N/A,N/A,Berlin,Hermsdorf (Reinickendorf),N/A,N/A,67.0,2.0,false,false,N/A,true,https://www.immobilienscout24.de/expose/133354091
133883287,Wohnen und Büro - saniertes StuckStück zur teilgewerblichen Nutzung,14163,2253.0,Martin-Buber-Str.,1,Berlin,Zehlendorf (Zehlendorf),52.43165,13.25789,116.0,3.0,true,false,N/A,false,https://www.immobilienscout24.de/expose/133883287
71776602,Schöne 2-Zimmer-Wohnung zu vermieten!,12049,647.0,Weisestr.,60,Berlin,Neukölln (Neukölln),52.47921,13.42355,53.0,2.0,true,false,N/A,false,https://www.immobilienscout24.de/expose/71776602
133484424,3-Zimmer-Wohnung mit Einkommensgrenze zwischen 180-240%,13053,869.0,Rüdickenstraße,23,Berlin,Neu-Hohenschönhausen (Hohenschönhausen),52.56007,13.50898,79.0,3.0,false,false,N/A,false,https://www.immobilienscout24.de/expose/133484424
133484421,Schöne 3-Zimmer-Wohnung mit Einkommensgrenze 180%-240%,13053,869.0,Rüdickenstraße,23,Berlin,Neu-Hohenschönhausen (Hohenschönhausen),52.56007,13.50898,79.0,3.0,false,false,N/A,false,https://www.immobilienscout24.de/expose/133484421
133609879,Schöne Dachgeschosswohnung mit Terrasse am Tegeler See!,13507,849.0,Bottroper Weg,23,Berlin,Tegel (Reinickendorf),52.57658,13.27867,60.92,2.0,true,false,N/A,true,https://www.immobilienscout24.de/expose/133609879
133762839,"Neubau 3 Zimmer Möblierte Wohnung mit EBK, Aufzug und sonnigem Balkon  ",10315,1559.0,Allee der Kosmonauten,25A,Berlin,Friedrichsfelde (Lichtenberg),52.52644,13.51859,66.5,3.0,true,false,N/A,true,https://www.immobilienscout24.de/expose/133762839
133483811,* ERSTBEZUG *  NEUBAU  IM SÜDEN BERLINS * WBS erforderlich *,12526,443.17,Schützenstraße,11A,Berlin,Bohnsdorf (Treptow),52.39646,13.53781,68.18,3.0,true,false,N/A,false,https://www.immobilienscout24.de/expose/133483811
133352520,Wunderschöne 2-Zimmer-Wohnung am Hamburger Bahnhof in Mitte / Spandauer Schifffahrtskanal ,10557,1995.0,Am Hamburger bhf,2,Berlin,Tiergarten (Tiergarten),52.53075,13.37004,66.98,2.0,false,false,N/A,false,https://www.immobilienscout24.de/expose/133352520
133761975,"Schickes, saniertes Büdchen - in Hellersdorf!",12627,499.0,Kastanienallee,90,Berlin,Hellersdorf (Hellersdorf),52.54146,13.60074,34.38,1.0,false,false,N/A,false,https://www.immobilienscout24.de/expose/133761975
133761770,Frisch renovierte Dachgeschosswohnung mit großer Dachterrasse!,12051,899.0,Silbersteinstraße,87 A,Berlin,Neukölln (Neukölln),52.46577,13.4288,54.43,2.0,true,false,N/A,false,https://www.immobilienscout24.de/expose/133761770
105943305,BERLIN - Apartment in zentraler Lage,13357,550.0,Koloniestr.,11/12,Berlin,Wedding (Wedding),52.55578,13.3778,19.0,1.0,true,true,N/A,true,https://www.immobilienscout24.de/expose/105943305
132045943,wunderschöne 3 Zimmer Wohnung mit offener Küche sofort zu beziehen,13409,1344.75,Werftendensteig,4a,Berlin,Reinickendorf (Reinickendorf),52.56577,13.36585,89.65,3.0,true,false,N/A,false,https://www.immobilienscout24.de/expose/132045943
105943495,möblierte Apartments - Berlin Mitte,13357,527.0,Jülicher Str.,16-17,Berlin,Wedding (Wedding),52.5508,13.39137,19.2,1.0,true,true,N/A,true,https://www.immobilienscout24.de/expose/105943495
133880977,Wohnen für Pflegebedürftige - Leben in Balance -  Grünes Reinickendorf mit Hauptstadtflair,13403,882.0,Antonienstr.,55,Berlin,Reinickendorf (Reinickendorf),52.57087,13.31115,32.0,2.0,true,false,N/A,true,https://www.immobilienscout24.de/expose/133880977
133607574,Tauschwohnung: 2-Zimmer+Wohnküche Neukölln/Tausch gegen 4-5 Zimmer Neukölln,12047,660.0,N/A,N/A,Berlin,Neukölln (Neukölln),N/A,N/A,72.0,2.0,false,true,N/A,true,https://www.immobilienscout24.de/expose/133607574
133880471,Gepflegte 3-Zimmer-DG-Wohnung in Köpenick/Adlershof,12557,705.0,Pestalozzistraße,11,Berlin,Köpenick (Köpenick),52.43654,13.56486,82.0,3.0,false,false,N/A,false,https://www.immobilienscout24.de/expose/133880471
133607252,HOMESK - Neubau-Erstbezug - 4-Zimmer-Wohnung mit Dachterrasse mit Blick über die Hasenheide,12049,1950.0,Columbiadamm,210,Berlin,Neukölln (Neukölln),52.47991,13.41991,91.7,4.0,true,false,N/A,true,https://www.immobilienscout24.de/expose/133607252
133606041,schicke Altbauwohnung mit Einbauküche,10553,980.0,Ufnaustr,4,Berlin,Tiergarten (Tiergarten),52.52959,13.31752,70.0,2.0,false,false,N/A,true,https://www.immobilienscout24.de/expose/133606041
133759208,NUR FÜR STUDENTEN - Vollständig möbliertes Privatzimmer in einer 3-er WG,12459,569.0,Ostendstraße,27,Berlin,Oberschöneweide (Köpenick),52.45736,13.53204,11.4,1.0,false,false,N/A,true,https://www.immobilienscout24.de/expose/133759208
133758950,Einzigartiges Townhouse in der Friedrichstadt - Wohnen im Charlie Living!,10117,4700.0,Zimmerstraße,97d,Berlin,Mitte (Mitte),52.50864,13.38756,206.0,5.0,true,false,N/A,true,https://www.immobilienscout24.de/expose/133758950
133479624,"Schöne, geräumige vier Zimmer Wohnung in Berlin, Lichterfelde (Steglitz)",12209,1800.0,Jägerstraße,23,Berlin,Lichterfelde (Steglitz),52.42658,13.33055,142.0,4.0,true,false,N/A,true,https://www.immobilienscout24.de/expose/133479624
133876985,"WBS 2 Zimmer für ""Ältere Menschen""!!! Seniorenwohnung mit Balkon und Aufzug",13357,399.87,Behmstr.,36,Berlin,Wedding (Wedding),52.55019,13.39324,60.3,2.0,true,false,N/A,false,https://www.immobilienscout24.de/expose/133876985
133876669,Exclusive 3 Zimmer Wohnung mit wunderschönen Möbeln und hochwertiger Austattung direkt am Hackeschen,10178,4390.0,Rosenthaler Str.,45,Berlin,Mitte (Mitte),52.52402,13.40306,93.0,3.0,true,false,N/A,true,https://www.immobilienscout24.de/expose/133876669
133876674,Vollmöblierte & hochwertig ausgestattete 1-Zimmer Wohnung in direkter Umgebung des Kurfürstendamm,10719,1990.0,Lietzenburgerstrasse,56,Berlin,Charlottenburg (Charlottenburg),52.50063,13.3296,40.0,1.0,true,false,N/A,true,https://www.immobilienscout24.de/expose/133876674
133876691,Super zentral gelegene 2 Zimmer Wohnung direkt am Hackeschen Markt. Vollmöbliert und ausgestattet,10178,3300.0,Rosenthaler Str.,44,Berlin,Mitte (Mitte),52.52397,13.40322,69.0,2.0,true,false,N/A,true,https://www.immobilienscout24.de/expose/133876691
133876696,Vollmöblierte & hochwertig ausgestattete 1-Zimmer Wohnung in direkter Umgebung des Kurfürstendamm,10719,1950.0,Lietzenburger Str.,56,Berlin,Charlottenburg (Charlottenburg),52.50061,13.32956,40.0,1.0,true,false,N/A,true,https://www.immobilienscout24.de/expose/133876696
133876575,Exclusive 2 Zimmer Wohnung mit wunderschönen Möbeln und hochwertiger Austattung direkt am Hackeschen,10178,3190.0,Rosenthaler Str.,44,Berlin,Mitte (Mitte),52.52397,13.40322,69.0,2.0,true,false,N/A,true,https://www.immobilienscout24.de/expose/133876575
133876573,Top 2 Zimmer Wohnung in Charlottenburg. Fußläufig 50 Meter von der nächsten U-Bahn Station,10777,1770.0,Spichernstraße,9,Berlin,Wilmersdorf (Wilmersdorf),52.49755,13.33235,63.0,2.0,true,false,N/A,true,https://www.immobilienscout24.de/expose/133876573
133876572,Optimal geschnittene 2 Zimmer Wohnung in direkter Umgebung des Hauptbahnhofs,10557,1760.0,Lydia-Rabinowitsch-Straße,26,Berlin,Tiergarten (Tiergarten),52.53249,13.3674,54.0,2.0,true,false,N/A,true,https://www.immobilienscout24.de/expose/133876572
133876493,Wunderschön gelegene 3 Zimmer Neubauwohnung mit toller Austattung direkt am Park am Gleisdreieck.,10783,2240.0,Dennewitzstraße,40,Berlin,Tiergarten (Tiergarten),52.49922,13.37027,67.0,3.0,true,false,N/A,true,https://www.immobilienscout24.de/expose/133876493
133876489,Hochwertig ausgestattete 2 Zimmer Wohnung in direkter Umgebung des Volkspark Friedrichshain,10249,2000.0,Auerstraße,47,Berlin,Friedrichshain (Friedrichshain),52.52139,13.44622,65.0,2.0,true,false,N/A,true,https://www.immobilienscout24.de/expose/133876489
133876485,Top 2 Zimmer Wohnung in Charlottenburg. Fußläufig 50 Meter von der nächsten U-Bahn Station,10777,1890.0,Spichernstraße,6,Berlin,Wilmersdorf (Wilmersdorf),52.49742,13.33225,61.0,2.0,false,false,N/A,true,https://www.immobilienscout24.de/expose/133876485
133479284,Schöne 1-Zimmer-Wohnung mit Einkommensgrenze 140-180%,13053,361.0,Rüdickenstrasse,27,Berlin,Neu-Hohenschönhausen (Hohenschönhausen),52.56007,13.50898,38.0,1.0,false,false,N/A,false,https://www.immobilienscout24.de/expose/133479284
98878621,Gemütliche 2-Zimmer Wohnung mit Balkon nur mit kompl. Bewerbung Besichtigungstermine,10245,961.0,Rochowstraße,14,Berlin,Friedrichshain (Friedrichshain),52.50017,13.45828,61.0,2.0,true,false,N/A,true,https://www.immobilienscout24.de/expose/98878621
132409488,Nur noch wenige Wohnungen verfügbar: Großstädtisch wohnen in entspannter Atmosphäre,10245,1880.0,Boxhagener Straße,76-78,Berlin,Friedrichshain (Friedrichshain),52.50772,13.46807,77.3,3.0,true,false,N/A,true,https://www.immobilienscout24.de/expose/132409488
112261228,"Fully Furnished, Bright, Altbau Apartment with a Balcony near the Kudam",10709,1300.0,Schweidnitzer straße,8,Berlin,Wilmersdorf (Wilmersdorf),52.49372,13.29706,50.0,2.0,true,false,N/A,true,https://www.immobilienscout24.de/expose/112261228
133814184,Voll möblierte 3- Zimmerwohnung,13507,1350.0,Veitstraße,23,Berlin,Tegel (Reinickendorf),52.58535,13.28164,79.0,3.0,false,false,N/A,true,https://www.immobilienscout24.de/expose/133814184
133047938,Super zentral gelegene 2 Zimmer Wohnung direkt neben dem Savignyplatz,10625,1790.0,Schlüterstraße,66,Berlin,Charlottenburg (Charlottenburg),52.50703,13.31804,60.0,2.0,true,false,N/A,true,https://www.immobilienscout24.de/expose/133047938
125068267,Nähe Gärten der Welt - EIINZIEHEN UND WOHLFÜHLEN!,12683,941.03,Cecilienstraße,195,Berlin,Biesdorf (Marzahn),52.52682,13.57612,78.55,3.0,true,false,N/A,false,https://www.immobilienscout24.de/expose/125068267
133875705,HOMESK - 3-Zimmer-Neubauwohnung mit großem Lichthof und Balkon in Neukölln,12051,1940.0,Glasower Straße,30,Berlin,Neukölln (Neukölln),52.46438,13.43521,107.65,3.0,true,false,N/A,true,https://www.immobilienscout24.de/expose/133875705
130394533,Maisonette-Wohnung mit Garten,14055,2500.0,N/A,N/A,Berlin,Charlottenburg (Charlottenburg),N/A,N/A,260.0,6.0,true,true,N/A,true,https://www.immobilienscout24.de/expose/130394533
132873069,Attraktives Single-Apartment am Rande Berlins,12309,355.56,Skarbinastraße,88,Berlin,Lichtenrade (Tempelhof),52.39335,13.42025,43.0,1.0,true,false,N/A,false,https://www.immobilienscout24.de/expose/132873069
133875617,HOMESK - Erstbezug im exklusiven Penthouse in Schöneberg - 4-Zimmer mit Galerie und Terrasse,10829,4990.0,Kolonnenstraße,20,Berlin,Schöneberg (Schöneberg),52.48483,13.36434,170.01,4.0,true,false,N/A,true,https://www.immobilienscout24.de/expose/133875617
133717638,Erstbezug! Großzügige 3-Zi-Whg. im 3. OG mit großem Balkon und Blick ins Grüne,12109,1549.0,An der alten Gärtnerei,22A,Berlin,Britz (Neukölln),52.4404,13.41135,94.0,3.0,true,false,N/A,true,https://www.immobilienscout24.de/expose/133717638
129758779,Große 2 Zimmer Wohnung sucht Handwerker!,12107,499.43,Mariendorfer Damm,418a,Berlin,Mariendorf (Tempelhof),52.41751,13.39861,58.0,2.0,true,false,N/A,false,https://www.immobilienscout24.de/expose/129758779
131969822,Tauschwohnung: Tausche Landeseigene Whg. 2-Zi. Prenzl Berg vs. 4 Zi. Pankow,10435,331.0,N/A,N/A,Berlin,Mitte (Mitte),N/A,N/A,53.0,2.0,true,false,N/A,true,https://www.immobilienscout24.de/expose/131969822
130678114,Berlins historische Mitte: 2-Zimmer Stadtresidenz im Erstbezug mit Concierge und Schloss Nähe,10117,2500.0,Niederlagstraße,9,Berlin,Mitte (Mitte),52.51623,13.39776,68.0,2.0,false,false,N/A,true,https://www.immobilienscout24.de/expose/130678114
132990881,/ AMEXIS /4 Zimmer Wohnung im Herzen von Tegel,13507,1835.0,ALt Tegel,1+3,Berlin,Tegel (Reinickendorf),52.58967,13.28303,118.35,4.0,false,false,N/A,false,https://www.immobilienscout24.de/expose/132990881
133754510,Tauschwohnung: Schöne 2-Zimmer Altbauwohnung im Soldiner Kiez (Wedding),13359,696.0,N/A,N/A,Berlin,Wedding (Wedding),N/A,N/A,67.0,2.0,true,false,N/A,false,https://www.immobilienscout24.de/expose/133754510
133754506,Tauschwohnung: Hübsche 2-Zi.-Altbau-Whg. im Bötzowkiez gegen 3-4 Zi.-Whg. ,10407,600.0,N/A,N/A,Berlin,Prenzlauer Berg (Prenzlauer Berg),N/A,N/A,65.0,2.0,false,false,N/A,true,https://www.immobilienscout24.de/expose/133754506
133754504,Tauschwohnung: 2- Zimmer Altbau gegen 3/ 4 -Zimmer!,12045,395.0,N/A,N/A,Berlin,Neukölln (Neukölln),N/A,N/A,58.0,2.0,true,false,N/A,false,https://www.immobilienscout24.de/expose/133754504
133600820,Tauschwohnung: Suche Schöneberg/Kreuzberg/Tempelhof und biete Neukölln,12059,510.0,N/A,N/A,Berlin,Neukölln (Neukölln),N/A,N/A,68.0,2.0,true,false,N/A,true,https://www.immobilienscout24.de/expose/133600820
133600810,Tauschwohnung: Wir suchen helle 4+ Raumwohnung in Berlin.,10407,1000.0,N/A,N/A,Berlin,Prenzlauer Berg (Prenzlauer Berg),N/A,N/A,89.0,3.0,true,false,N/A,false,https://www.immobilienscout24.de/expose/133600810
131858448,Tauschwohnung: Tausche Altbauwohnung mit Balkon gegen 3 oder 4 Zimmer,10439,600.0,N/A,N/A,Berlin,Prenzlauer Berg (Prenzlauer Berg),N/A,N/A,60.0,2.0,true,false,N/A,true,https://www.immobilienscout24.de/expose/131858448
133356496,"*Ihr Traum in vier Wänden!* Wunderschöne 4-Zimmer Familienwohnung, nähe KaDeWe",10789,3249.0,Nürnberger Straße,20,Berlin,Charlottenburg (Charlottenburg),52.502,13.33748,131.07,4.0,true,false,N/A,false,https://www.immobilienscout24.de/expose/133356496
132925202,***Frisch sanierte 1-Zimmerwohnung im Altbau in Friedrichshain***,10249,699.0,Richard-Sorge-Straße,12,Berlin,Friedrichshain (Friedrichshain),52.51868,13.44905,31.53,1.0,false,false,N/A,false,https://www.immobilienscout24.de/expose/132925202
132747531,ERSTBEZUG nach Sanierung! schöne Singlewohnung,12051,659.0,Emser Straße,92,Berlin,Neukölln (Neukölln),52.46781,13.42674,27.5,1.0,false,false,N/A,false,https://www.immobilienscout24.de/expose/132747531
132747059,ERSTBEZUG nach Sanierung! wunderschöner Altbau mit Dielen,12051,1079.0,Emser Straße,92,Berlin,Neukölln (Neukölln),52.46781,13.42674,49.04,2.0,false,false,N/A,false,https://www.immobilienscout24.de/expose/132747059
132284239,*Wunderschöner Altbau in Wilmersdorf*,10715,739.0,Babelsberger Straße,43,Berlin,Wilmersdorf (Wilmersdorf),52.48535,13.33558,36.32,1.0,false,false,N/A,false,https://www.immobilienscout24.de/expose/132284239
71054286,"Sehr große  4 Zi-Altbau-Stuck-WE mit großem Bad und Küche, Marmorkamin",12487,1940.0,Herweghstrasse,19,Berlin,Johannisthal (Treptow),52.44306,13.50313,123.0,4.0,true,false,N/A,true,https://www.immobilienscout24.de/expose/71054286
125269880,Loft - direkt an der Spree - Rohling zum Selbstausbau - EINMALIG,12439,5800.0,N/A,N/A,Berlin,Niederschöneweide (Treptow),N/A,N/A,275.0,4.0,true,false,N/A,true,https://www.immobilienscout24.de/expose/125269880
57053675,Bei UNS können SIE eine barriefreie Wohnung anmieten!,14167,443.64,Teltower Damm,199,Berlin,Zehlendorf (Zehlendorf),52.41691,13.26584,38.95,1.0,true,false,N/A,true,https://www.immobilienscout24.de/expose/57053675
131813298,Tauschwohnung: Renoviert 2Z 72qm PBerg +Westbalkon für Gleiches PBerg/Mitte,10439,973.0,N/A,N/A,Berlin,Prenzlauer Berg (Prenzlauer Berg),N/A,N/A,72.0,2.0,true,false,N/A,true,https://www.immobilienscout24.de/expose/131813298
133749376,"Schöne drei Zimmer Wohnung, im obersten 5 Etage mit Terasse",13055,850.0,Plauener Str.,68,Berlin,Alt-Hohenschönhausen (Hohenschönhausen),52.53823,13.50767,77.0,3.0,false,true,N/A,false,https://www.immobilienscout24.de/expose/133749376
133749376,"Schöne drei Zimmer Wohnung, im obersten 5 Etage mit Terasse",13055,850.0,Plauener Str.,68,Berlin,Alt-Hohenschönhausen (Hohenschönhausen),52.53823,13.50767,77.0,3.0,false,true,N/A,false,https://www.immobilienscout24.de/expose/133749376
132074376,"Tauschwohnung: 1 Z. Whg in Xberg gegen 2 in Xberg, Xkölln oder Schöneberg",10999,400.0,N/A,N/A,Berlin,Kreuzberg (Kreuzberg),N/A,N/A,40.0,1.0,false,false,N/A,true,https://www.immobilienscout24.de/expose/132074376
131853227,Tauschwohnung: Schöne 2 Zimmer- Altbauwohnung mit Balkon  gg.grossere im PB,10435,500.0,N/A,N/A,Berlin,Prenzlauer Berg (Prenzlauer Berg),N/A,N/A,70.0,2.0,true,true,N/A,false,https://www.immobilienscout24.de/expose/131853227
131853120,Tauschwohnung:  Whg im Richard-Kiez,12055,650.0,N/A,N/A,Berlin,Neukölln (Neukölln),N/A,N/A,78.0,2.0,true,false,N/A,false,https://www.immobilienscout24.de/expose/131853120
133727733,Home Select L | 115m² Wohnung mit 4 Zimmern in Berlin,13088,2800.0,Meyerbeerstraße,63,Berlin,Weißensee (Weißensee),52.54796,13.45742,115.0,4.0,true,false,N/A,true,https://www.immobilienscout24.de/expose/133727733
131852351,"Tauschwohnung: 2Zi,Altb,Balk,FHain,ggn.3Zi,bis1200€,PBerg,Wed,FHain,Mitte",10245,620.0,N/A,N/A,Berlin,Friedrichshain (Friedrichshain),N/A,N/A,65.0,2.0,true,true,N/A,false,https://www.immobilienscout24.de/expose/131852351
92993505,"3 Zi. Luxus-Appartment m. Kaminzimmer, Sonnenbalkon u. EBK, 30 min bis nach Mitte -z.B. Humboldt-Uni",12487,1350.0,Johannes-Werner-Str.,22,Berlin,Johannisthal (Treptow),52.44282,13.50299,85.0,3.0,true,true,N/A,true,https://www.immobilienscout24.de/expose/92993505
133340923,* ERSTBEZUG *  NEUBAU  IM SÜDEN BERLINS * WBS mit besonderem Wohnbedarf erforderlich *,12526,341.84,Schützenstraße,11,Berlin,Bohnsdorf (Treptow),52.39646,13.53781,52.59,2.0,false,false,N/A,false,https://www.immobilienscout24.de/expose/133340923
131851210,Tauschwohnung: MAISONETTE AM KÖRNERPARK GEGEN MIND. 3 ZIMMER WOHNUNG NK/KRE,12051,480.0,N/A,N/A,Berlin,Neukölln (Neukölln),N/A,N/A,60.0,2.0,false,false,N/A,false,https://www.immobilienscout24.de/expose/131851210
133746954,"Erstbezug für Wunderschöne 3 Zimmer Whg. mit Balkon, nähe Friedrichshain",10315,1546.0,Rummelsburger Str.,98,Berlin,Friedrichsfelde (Lichtenberg),52.49955,13.49501,98.66,3.0,false,false,N/A,false,https://www.immobilienscout24.de/expose/133746954
133746941,"Erstbezug für Wunderschöne 2 Zimmer Whg. mit Terrasse, nähe Friedrichshain",10315,1247.0,Rummelsburger Str.,98,Berlin,Friedrichsfelde (Lichtenberg),52.49955,13.49501,56.31,2.0,false,false,N/A,false,https://www.immobilienscout24.de/expose/133746941
133746938,Erstbezug für Wunderschöne 2 Zimmer Whg.  nähe Friedrichshain,10315,1247.0,Rummelsburger Str.,98,Berlin,Friedrichsfelde (Lichtenberg),52.49955,13.49501,56.97,2.0,false,false,N/A,false,https://www.immobilienscout24.de/expose/133746938
133746926,"Erstbezug für Wunderschöne 2 Zimmer Whg. mit Balkon, nähe Friedrichshain",10315,1348.0,Rummelsburger Str.,98,Berlin,Friedrichsfelde (Lichtenberg),52.49955,13.49501,62.08,2.0,false,false,N/A,false,https://www.immobilienscout24.de/expose/133746926
133746916,"Erstbezug für Wunderschöne 1,5 Zimmer Whg. mit Terrasse, nähe Friedrichshain",10315,1045.0,Rummelsburger Str.,98,Berlin,Friedrichsfelde (Lichtenberg),52.49955,13.49501,42.96,1.5,false,false,N/A,false,https://www.immobilienscout24.de/expose/133746916
133746904,Erstbezug für Wunderschöne 2 Zimmer Whg.  nähe Friedrichshain,10315,1348.0,Rummelsburger Str.,98,Berlin,Friedrichsfelde (Lichtenberg),52.49955,13.49501,64.63,2.0,false,false,N/A,false,https://www.immobilienscout24.de/expose/133746904
133746891,"Erstbezug für Wunderschöne 2 Zimmer Whg. mit BalKon, nähe Friedrichshain",10315,1247.0,Rummelsburger Str.,98,Berlin,Friedrichsfelde (Lichtenberg),52.49955,13.49501,56.08,2.0,false,false,N/A,false,https://www.immobilienscout24.de/expose/133746891
133746888,Erstbezug für Wunderschöne 2 Zimmer Whg.  nähe Friedrichshain,10315,1348.0,Rummelsburger Str.,98,Berlin,Friedrichsfelde (Lichtenberg),52.49955,13.49501,62.06,2.0,false,false,N/A,false,https://www.immobilienscout24.de/expose/133746888
133746856,Erstbezug für Wunderschöne 2 Zimmer Whg.  nähe Friedrichshain,10315,1348.0,Rummelsburger Str.,98,Berlin,Friedrichsfelde (Lichtenberg),52.49955,13.49501,62.06,2.0,false,false,N/A,false,https://www.immobilienscout24.de/expose/133746856
133114566,"Erstbezug mit EBK und Loggia, luxuriöse 2-Zimmer-Wohnung in Siemensstadt , Berlin",13629,1490.0,Bödikersteig,11,Berlin,Siemensstadt (Spandau),52.53553,13.26832,67.0,2.0,true,false,N/A,true,https://www.immobilienscout24.de/expose/133114566
133746840,"Erstbezug für Wunderschöne 2 Zimmer Whg. mit Balcon, nähe Friedrichshain",10315,1247.0,Rummelsburger Str.,98,Berlin,Friedrichsfelde (Lichtenberg),52.49955,13.49501,56.08,2.0,false,false,N/A,false,https://www.immobilienscout24.de/expose/133746840
133114937,"Schöne, geräumige ein Zimmer Wohnung in Berlin, Siemensstadt (Spandau)",13629,850.0,Köttgenstraße,2,Berlin,Siemensstadt (Spandau),52.54347,13.26066,36.0,1.0,false,true,N/A,true,https://www.immobilienscout24.de/expose/133114937
131850244,Tauschwohnung: Sonniges 2 ZI mit Balkon in Bergmannkiez gg 3 Zi,10961,420.0,N/A,N/A,Berlin,Kreuzberg (Kreuzberg),N/A,N/A,58.0,2.0,true,false,N/A,true,https://www.immobilienscout24.de/expose/131850244
131850232,Tauschwohnung: Tausch: 2x Whg. in P‘berg und Kreuzkölln gegen min. 80qm!,10405,588.0,N/A,N/A,Berlin,Prenzlauer Berg (Prenzlauer Berg),N/A,N/A,54.0,2.0,false,false,N/A,true,https://www.immobilienscout24.de/expose/131850232
131850052,Tauschwohnung: 3 Zimmer Wohnung Neukölln in der Nähe vom Tempelhofer Feld,12051,729.0,N/A,N/A,Berlin,Neukölln (Neukölln),N/A,N/A,76.0,3.0,false,false,N/A,false,https://www.immobilienscout24.de/expose/131850052
133467772,"Am schönsten ist es hier - bei uns zu Hause - Wohngebiet ""Weiße Taube""",13055,924.12,Plauener Str.,68,Berlin,Alt-Hohenschönhausen (Hohenschönhausen),52.53823,13.50767,77.01,3.0,true,false,N/A,false,https://www.immobilienscout24.de/expose/133467772
130801031,"Am schönsten ist es hier - bei uns zu Hause - Wohngebiet ""Weiße Taube""",13055,905.64,Arendsweg,40,Berlin,Alt-Hohenschönhausen (Hohenschönhausen),52.53792,13.50564,75.47,2.0,true,false,N/A,true,https://www.immobilienscout24.de/expose/130801031
133466164,"Am schönsten ist es hier - bei uns zu Hause - Wohngebiet ""Weiße Taube""",13055,908.04,Arendsweg,44,Berlin,Alt-Hohenschönhausen (Hohenschönhausen),52.53824,13.50562,75.67,2.0,true,false,N/A,true,https://www.immobilienscout24.de/expose/133466164
115564006,Claire-Waldoff-Str.+Traumhafte Dachgeschosswohnung mit 2 Balkonen in ruhiger Grünlage+,10117,1420.0,Claire-Waldoff-Strasse,12,Berlin,Mitte (Mitte),52.52507,13.38578,66.0,2.0,true,false,N/A,false,https://www.immobilienscout24.de/expose/115564006
131849038,"Tauschwohnung: 2 x 2-Zi Altbau+Balkon KB und FH gegen min. 3-Zi in KB, NK, TK",10997,400.0,N/A,N/A,Berlin,Kreuzberg (Kreuzberg),N/A,N/A,60.0,2.0,true,false,N/A,false,https://www.immobilienscout24.de/expose/131849038
133592340,1 - Zimmerwohnung mit Balkon in ruhiger Lage,12305,530.0,Kettinger Straße,87,Berlin,Lichtenrade (Tempelhof),52.4061,13.39088,30.0,1.0,true,true,N/A,false,https://www.immobilienscout24.de/expose/133592340
133336430,Beeindruckende DG-Wohnung im Stuckaltbau in Kreuzberg,10963,2260.0,Tempelhofer Ufer,12,Berlin,Kreuzberg (Kreuzberg),52.4983,13.38537,113.0,3.0,true,false,N/A,true,https://www.immobilienscout24.de/expose/133336430
131848866,Tauschwohnung: 2-R.-W/3. St. gegen Erdg. od Whng. in 1. Etage in Neukölln ,12049,380.0,N/A,N/A,Berlin,Neukölln (Neukölln),N/A,N/A,61.0,2.0,false,false,N/A,false,https://www.immobilienscout24.de/expose/131848866
132177725,Wohnen am Urbanhafen nähe Graefe-Kiez-Modernisierte Wohnung mit Einbauküche wartet auf neue Mieter!,10961,2649.0,Geibelstraße,2,Berlin,Kreuzberg (Kreuzberg),52.49443,13.40604,125.95,4.0,true,false,N/A,true,https://www.immobilienscout24.de/expose/132177725
132709225,EINZIGARTIGES WOHNDOMIZIL DIREKT AN DER SPREE (möbliert),12587,3114.0,N/A,N/A,Berlin,Friedrichshagen (Köpenick),N/A,N/A,173.0,5.0,true,false,N/A,true,https://www.immobilienscout24.de/expose/132709225
130958383,"Top-Lage Neu-Westend/Brixplatz -Großzügige Hochparterre-Wohnung/Ruhig, vollständig saniert/Parkblick",14052,2419.8,Brixplatz,11,Berlin,Charlottenburg (Charlottenburg),52.51804,13.25551,191.2,5.0,true,false,N/A,false,https://www.immobilienscout24.de/expose/130958383
133744314,Schönes Zimmer in 5-er Studenten-WG,12459,524.0,Ostendstraße,27,Berlin,Oberschöneweide (Köpenick),52.45736,13.53204,12.0,1.0,false,false,N/A,true,https://www.immobilienscout24.de/expose/133744314
133868528,Home Classic M | 53m² Wohnung mit 2 Zimmern in Berlin,10709,1025.0,Westfälische Straße,32,Berlin,Wilmersdorf (Wilmersdorf),52.49592,13.2973,53.48,2.0,false,false,N/A,true,https://www.immobilienscout24.de/expose/133868528
132980931,hochwertig möbliertes & helles 2-Zimmer Apartment in Mitte - virtuelle Besichtigungstour möglich,10115,2163.0,Brunnenstraße,174,Berlin,Mitte (Mitte),52.5379,13.39639,71.09,2.0,true,false,N/A,true,https://www.immobilienscout24.de/expose/132980931
132980919,hochwertig möbliertes & helles 2-Zimmer Apartment in Mitte - virtuelle Besichtigungstour möglich,10115,2163.0,Brunnenstraße,174,Berlin,Mitte (Mitte),52.5379,13.39639,71.09,2.0,true,false,N/A,true,https://www.immobilienscout24.de/expose/132980919
133868285,Home Select M | 68m² Wohnung mit 2 Zimmern in Berlin,10245,1220.0,Stralauer Allee,13A,Berlin,Friedrichshain (Friedrichshain),52.49822,13.46084,68.0,2.0,true,false,N/A,true,https://www.immobilienscout24.de/expose/133868285
131553934,Exklusiv möbliertes und luxuriöses Wohnen nahe des Ku´damms,10789,5450.0,N/A,N/A,Berlin,Charlottenburg (Charlottenburg),N/A,N/A,174.0,4.0,true,false,N/A,true,https://www.immobilienscout24.de/expose/131553934
133357136,Hochwertiges klimatisiertes Neubaudachgeschoß mit Südwestterrasse & Fernblick in Ruhiglage,10585,3526.0,Zillestraße,107,Berlin,Charlottenburg (Charlottenburg),52.51339,13.30468,176.27,5.0,true,false,N/A,true,https://www.immobilienscout24.de/expose/133357136
131847597,Tauschwohnung: Tausch: 2x Whg. in Kreuzkölln und P‘berg gegen min. 80qm!,12047,422.0,N/A,N/A,Berlin,Neukölln (Neukölln),N/A,N/A,52.0,1.5,true,true,N/A,true,https://www.immobilienscout24.de/expose/131847597
131847453,Tauschwohnung: 2 Z-Whg in KB-SB geg. Größere,10829,437.0,N/A,N/A,Berlin,Schöneberg (Schöneberg),N/A,N/A,42.0,2.0,true,false,N/A,false,https://www.immobilienscout24.de/expose/131847453
133335548,bezugsfreie 2 Zimmer-Wohnung im Herzen von Steglitz,12169,1162.04,Steglitzer Damm,24,Berlin,Steglitz (Steglitz),52.45046,13.33998,65.05,2.0,true,true,N/A,true,https://www.immobilienscout24.de/expose/133335548
133742426,Gemütliche 3-Zimmer-Mietwohnung in idyllischer Lage am Rande von Berlin,12527,1200.0,N/A,N/A,Berlin,Schmöckwitz (Köpenick),N/A,N/A,86.0,3.0,false,false,N/A,true,https://www.immobilienscout24.de/expose/133742426
133867825,Home Essential S | 42m² Wohnung mit 1.5 Zimmern in Berlin,13353,585.0,Föhrer Straße,12,Berlin,Wedding (Wedding),52.54167,13.34935,42.0,1.5,true,false,N/A,true,https://www.immobilienscout24.de/expose/133867825
132392073,Stylisches möbliertes Loftapartment nahe Schloss Charlottenburg ab 25. Juni zu vermieten,10553,1250.0,Kaiserin-Augusta-Allee,28,Berlin,Tiergarten (Tiergarten),52.52601,13.31678,37.9,1.0,false,false,N/A,false,https://www.immobilienscout24.de/expose/132392073
133742020,"Eislebener Straße 7, 10789 Berlin",10789,700.0,Eislebener Straße,7,Berlin,Charlottenburg (Charlottenburg),52.50098,13.33395,35.0,1.0,false,false,N/A,true,https://www.immobilienscout24.de/expose/133742020
127700051,"Großzügige 1-Zimmer Wohnung in Wedding - nur Studenten, Azubis o. Praktikanten",13347,725.0,Gerichtstraße,65,Berlin,Wedding (Wedding),52.54345,13.37245,30.05,1.0,false,false,N/A,true,https://www.immobilienscout24.de/expose/127700051
133233857,Home Select M | 62m² Wohnung mit 2 Zimmern in Berlin,10179,1850.0,Dresdener Straße,108,Berlin,Mitte (Mitte),52.50561,13.41418,61.7,2.0,true,false,N/A,true,https://www.immobilienscout24.de/expose/133233857
131846578,Tauschwohnung: 3 Z-Whg. Samariterviertel // Suche mind. 4 Z-Whg.,10247,538.0,N/A,N/A,Berlin,Friedrichshain (Friedrichshain),N/A,N/A,92.0,3.0,true,false,N/A,true,https://www.immobilienscout24.de/expose/131846578
133867373,Moderne 1-Zimmer-Wohnung in ruhiger Lage ,12527,540.0,Regattastraße ,25,Berlin,Grünau (Köpenick),52.42636,13.57413,30.5,1.0,true,false,N/A,true,https://www.immobilienscout24.de/expose/133867373
133741160,Atemberaubende Maisonette-Wohnung direkt am Potsdamer Platz!,10785,3000.0,Potsdamer Straße WE 09.02,4,Berlin,Tiergarten (Tiergarten),52.51,13.37328,139.0,3.0,false,false,N/A,true,https://www.immobilienscout24.de/expose/133741160
132263288,* ERSTBEZUG *  NEUBAU  IM SÜDEN BERLINS *,12526,683.34,Schützenstraße,11C,Berlin,Bohnsdorf (Treptow),52.39646,13.53781,71.93,3.0,true,false,N/A,false,https://www.immobilienscout24.de/expose/132263288
133590001,"Tauschwohnung: Biete 1,5 Wedding und suche ab 2 Zimmer PB, Pankow, Wedding",13357,330.0,N/A,N/A,Berlin,Wedding (Wedding),N/A,N/A,46.0,1.5,false,true,N/A,false,https://www.immobilienscout24.de/expose/133590001
104876227,"Moderne 3-Zimmer-Wohnung mit großem Balkon und EBK, ZWEITBEZUG",10179,1800.0,Heinrich-Heine-Str.,38a,Berlin,Mitte (Mitte),52.50576,13.41212,78.14,3.0,true,true,N/A,true,https://www.immobilienscout24.de/expose/104876227
133740319,DI - geräumige 3-Zimmer-Wohnung mit Garten nahe Schlachtensee/Krumme Lanke (1-5 J. Zeitmietvertrag),14163,2004.69,Fischerhüttenstraße,92,Berlin,Zehlendorf (Zehlendorf),52.4447,13.23557,105.51,3.0,true,true,N/A,false,https://www.immobilienscout24.de/expose/133740319
131845373,Tauschwohnung: Moderne 1 Zimmer Wohnung ,10999,277.0,N/A,N/A,Berlin,Kreuzberg (Kreuzberg),N/A,N/A,36.0,1.0,true,false,N/A,true,https://www.immobilienscout24.de/expose/131845373
131845352,Tauschwohnung: 2 Zi DG im Kollwitzkiez; Suche: ab 3 Zi in Kreuzberg,10405,785.0,N/A,N/A,Berlin,Prenzlauer Berg (Prenzlauer Berg),N/A,N/A,61.0,2.0,true,false,N/A,true,https://www.immobilienscout24.de/expose/131845352
131844656,"Tauschwohnung: 2 Zi-Whg gg 1,5-2 Zi ",10319,530.0,N/A,N/A,Berlin,Friedrichsfelde (Lichtenberg),N/A,N/A,62.0,2.0,true,false,N/A,true,https://www.immobilienscout24.de/expose/131844656
133739283,Möbliertes 1 Zimmer Studio mit Balkon - 25 Mins vom Alexanderplatz,10315,854.0,Allee der Kosmonauten,25A,Berlin,Friedrichsfelde (Lichtenberg),52.52644,13.51859,29.7,1.0,true,false,N/A,true,https://www.immobilienscout24.de/expose/133739283
133711286,"Attraktive und helle 2-Zimmerwohnung am Spittelmarkt - ""Mitten in der Mitte""",10179,790.0,Neue Grünstraße,9,Berlin,Mitte (Mitte),52.50902,13.40496,56.0,2.0,true,false,N/A,true,https://www.immobilienscout24.de/expose/133711286
133866070,Freundliche und helle 3-Zimmer Altbauwohnung ohne Balkon,13595,583.2,Kuhnertstr.,10,Berlin,Spandau (Spandau),52.51793,13.19616,64.8,3.0,false,false,N/A,true,https://www.immobilienscout24.de/expose/133866070
133866395,Home Select M | Exklusives Wohnen direkt am Wasser in Berlin Grünau,12527,1351.5,An der Dahme,3,Berlin,Grünau (Köpenick),52.42651,13.57668,66.3,2.0,true,false,N/A,true,https://www.immobilienscout24.de/expose/133866395
133738624,*Ruhig Wohnen nähe KaDeWe* Neu sanierte 1-Zimmer Wohnung mit viel Platz!,10789,1099.0,Nürnberger Straße,20,Berlin,Charlottenburg (Charlottenburg),52.502,13.33748,49.85,1.0,false,false,N/A,false,https://www.immobilienscout24.de/expose/133738624
133750305,"Erstbezug Neubau 3-Zimmer-Wohnung mit Balkon und Einbauküche in Charlottenburg, Berlin",10585,1785.0,Gierkezeile,17a,Berlin,Charlottenburg (Charlottenburg),52.51447,13.30271,89.0,3.0,true,true,N/A,true,https://www.immobilienscout24.de/expose/133750305
131843403,Tauschwohnung: 1-Zimmer-Altbau im Schillerkiez / Neukölln,12049,310.0,N/A,N/A,Berlin,Neukölln (Neukölln),N/A,N/A,41.0,1.0,false,false,N/A,false,https://www.immobilienscout24.de/expose/131843403
133866057,Vollmöblierte & hochwertig ausgestattete 1-Zimmer Wohnung in direkter Umgebung des Kurfürstendamm,10719,1660.0,Lietzenburger Str.,56,Berlin,Charlottenburg (Charlottenburg),52.50061,13.32956,38.0,1.0,false,false,N/A,true,https://www.immobilienscout24.de/expose/133866057
133866056,Schön ausgestattete 2 Zimmer Wohnung in direkter Umgebung des Potsdamer Platz & Nollendorfplatz,10785,2670.0,Schönegarten,5,Berlin,Tiergarten (Tiergarten),52.50133,13.35922,75.0,2.0,true,false,N/A,true,https://www.immobilienscout24.de/expose/133866056
131794931,Tauschwohnung: Traumhafte 2Zi Altbau mit römischem Bad und top Anbindung,12489,696.0,N/A,N/A,Berlin,Adlershof (Treptow),N/A,N/A,75.0,2.0,false,false,N/A,true,https://www.immobilienscout24.de/expose/131794931
